{"surb1238": {"med": {"id": "157665", "pages": 12, "doctype": "wordlist", "year": 1995}, "name": "Surbakhal", "sources": [{"id": "157665", "pages": 12, "doctype": "wordlist", "year": 1995}, {"id": "121033", "pages": 1, "doctype": "wordlist", "year": 1983}, {"id": "108092", "pages": 0, "doctype": "overview", "year": 1962}, {"id": "29761", "pages": 5, "doctype": null, "year": 1924}], "latitude": 13.1331, "extinct": false, "macroareas": ["Africa"], "id": "surb1238", "longitude": 21.6243}, "fali1285": {"med": {"id": "12354", "pages": 0, "doctype": "grammar", "year": 1971}, "name": "Fali", "sources": [{"id": "12354", "pages": 0, "doctype": "grammar", "year": 1971}, {"id": "104832", "pages": 6, "doctype": "wordlist", "year": 1931}], "latitude": 10.5419, "extinct": false, "macroareas": ["Africa"], "id": "fali1285", "longitude": 13.4087}, "dibi1240": {"med": {"id": "142333", "pages": 2, "doctype": "wordlist", "year": 1975}, "name": "Dibiyaso", "sources": [{"id": "142333", "pages": 2, "doctype": "wordlist", "year": 1975}, {"id": "53251", "pages": 1, "doctype": "wordlist", "year": 1924}], "latitude": -7.82096, "extinct": false, "macroareas": ["Pacific"], "id": "dibi1240", "longitude": 142.779}, "wadd1237": {"med": {"id": "164628", "pages": 0, "doctype": "wordlist", "year": 1906}, "name": "Waddar", "sources": [{"id": "164628", "pages": 0, "doctype": "wordlist", "year": 1906}, {"id": "300688", "pages": 156, "doctype": "overview", "year": 1903}], "latitude": 19.8838, "extinct": false, "macroareas": ["Eurasia"], "id": "wadd1237", "longitude": 77.1673}, "umbu1235": {"med": {"id": "120662", "pages": 110, "doctype": "grammarsketch", "year": 1989}, "name": "Umbugarla", "sources": [{"id": "120662", "pages": 110, "doctype": "grammarsketch", "year": 1989}], "latitude": -12.9325, "extinct": true, "macroareas": ["Australia"], "id": "umbu1235", "longitude": 131.825}, "waha1238": {"med": {"id": "150375", "pages": 11, "doctype": "comparative", "year": 2006}, "name": "Wahau Kenyah", "sources": [{"id": "150375", "pages": 11, "doctype": "comparative", "year": 2006}, {"id": "117972", "pages": 0, "doctype": "minimal", "year": 1924}], "latitude": 1.56635, "extinct": false, "macroareas": ["Pacific"], "id": "waha1238", "longitude": 116.655}, "obol1243": {"med": {"id": "43182", "pages": 410, "doctype": "grammar", "year": 2003}, "name": "Obolo", "sources": [{"id": "43182", "pages": 410, "doctype": "grammar", "year": 2003}, {"id": "77287", "pages": 142, "doctype": "grammar", "year": 1984}, {"id": "160258", "pages": 14, "doctype": "dialectology", "year": 1982}, {"id": "72346", "pages": 0, "doctype": null, "year": 1978}, {"id": "133993", "pages": 0, "doctype": null, "year": 1977}], "latitude": 4.62851, "extinct": false, "macroareas": ["Africa"], "id": "obol1243", "longitude": 7.81985}, "bala1302": {"med": {"id": "98395", "pages": 461, "doctype": "grammar", "year": 1999}, "name": "Balanta-Ganja", "sources": [{"id": "98395", "pages": 461, "doctype": "grammar", "year": 1999}, {"id": "90418", "pages": 16, "doctype": "grammarsketch", "year": 1973}, {"id": "300730", "pages": 0, "doctype": "grammarsketch", "year": 1970}, {"id": "53009", "pages": 18, "doctype": null, "year": 1969}], "latitude": 12.5382, "extinct": false, "macroareas": ["Africa"], "id": "bala1302", "longitude": -15.6658}, "bala1301": {"med": {"id": "79406", "pages": 52, "doctype": "grammar", "year": 1951}, "name": "Balanta-Kentohe", "sources": [{"id": "79406", "pages": 52, "doctype": "grammar", "year": 1951}, {"id": "33038", "pages": 0, "doctype": "grammar", "year": 1950}, {"id": "50414", "pages": 0, "doctype": "grammar", "year": 1938}, {"id": "124608", "pages": 5, "doctype": null, "year": 1936}], "latitude": 11.8203, "extinct": false, "macroareas": ["Africa"], "id": "bala1301", "longitude": -15.3221}, "kinn1249": {"med": {"id": "136473", "pages": 219, "doctype": "grammar", "year": 1988}, "name": "Kinnauri", "sources": [{"id": "136473", "pages": 219, "doctype": "grammar", "year": 1988}, {"id": "314250", "pages": 0, "doctype": "grammar", "year": 1967}, {"id": "118883", "pages": -573, "doctype": "grammar", "year": 1909}, {"id": "149687", "pages": 7, "doctype": "grammarsketch", "year": 1844}, {"id": "152656", "pages": 34, "doctype": "wordlist", "year": 1842}], "latitude": 31.3688, "extinct": false, "macroareas": ["Eurasia"], "id": "kinn1249", "longitude": 78.3148}, "zaza1245": {"med": {"id": "32367", "pages": 0, "doctype": "grammarsketch", "year": 1926}, "name": "Zazao", "sources": [{"id": "32367", "pages": 0, "doctype": "grammarsketch", "year": 1926}], "latitude": -8.18719, "extinct": false, "macroareas": ["Pacific"], "id": "zaza1245", "longitude": 159.255}, "mama1278": {"med": {"id": "20138", "pages": 608, "doctype": "grammar", "year": 2009}, "name": "Mamainde", "sources": [{"id": "20138", "pages": 608, "doctype": "grammar", "year": 2009}, {"id": "9156", "pages": 22, "doctype": "grammarsketch", "year": 1973}, {"id": "11872", "pages": 5, "doctype": "wordlist", "year": 1947}, {"id": "113980", "pages": 5, "doctype": "wordlist", "year": 1942}, {"id": "138381", "pages": 5, "doctype": "wordlist", "year": 1928}, {"id": "128742", "pages": 0, "doctype": null, "year": 1910}], "latitude": -13.2396, "extinct": false, "macroareas": ["South America"], "id": "mama1278", "longitude": -59.9925}, "qash1240": {"med": {"id": "303798", "pages": 0, "doctype": "grammarsketch", "year": 1990}, "name": "Qashqa'i", "sources": [{"id": "303798", "pages": 0, "doctype": "grammarsketch", "year": 1990}, {"id": "313353", "pages": 0, "doctype": "grammarsketch", "year": 1987}, {"id": "301976", "pages": 0, "doctype": "grammarsketch", "year": 1937}], "latitude": 28.2593, "extinct": false, "macroareas": ["Eurasia"], "id": "qash1240", "longitude": 52.8335}, "kamo1254": {"med": {"id": "114627", "pages": 3, "doctype": "comparative", "year": 1989}, "name": "Kamo", "sources": [{"id": "114627", "pages": 3, "doctype": "comparative", "year": 1989}], "latitude": 10.0602, "extinct": false, "macroareas": ["Africa"], "id": "kamo1254", "longitude": 11.2712}, "kamo1255": {"med": {"id": "145316", "pages": 111, "doctype": "grammar", "year": 1953}, "name": "Kamoro", "sources": [{"id": "145316", "pages": 111, "doctype": "grammar", "year": 1953}, {"id": "314595", "pages": 18, "doctype": "wordlist", "year": 1908}, {"id": "28694", "pages": 7, "doctype": "wordlist", "year": 1837}, {"id": "303544", "pages": 0, "doctype": "wordlist", "year": 1830}], "latitude": -4.30433, "extinct": false, "macroareas": ["Pacific"], "id": "kamo1255", "longitude": 135.883}, "mama1271": {"med": {"id": "136751", "pages": 0, "doctype": "grammar", "year": 1925}, "name": "Mamara Senoufo", "sources": [{"id": "136751", "pages": 0, "doctype": "grammar", "year": 1925}, {"id": "76167", "pages": 57, "doctype": "grammarsketch", "year": 1921}], "latitude": 12.4871, "extinct": false, "macroareas": ["Africa"], "id": "mama1271", "longitude": -5.28245}, "mama1272": {"med": {"id": "158475", "pages": 2, "doctype": "wordlist", "year": 1975}, "name": "Mama", "sources": [{"id": "158475", "pages": 2, "doctype": "wordlist", "year": 1975}], "latitude": 8.8062, "extinct": false, "macroareas": ["Africa"], "id": "mama1272", "longitude": 8.78601}, "mopa1243": {"med": {"id": "12789", "pages": 95, "doctype": "grammar", "year": 1974}, "name": "Mopan Maya", "sources": [{"id": "12789", "pages": 95, "doctype": "grammar", "year": 1974}, {"id": "123824", "pages": 21, "doctype": "grammarsketch", "year": 1966}, {"id": "7523", "pages": 0, "doctype": null, "year": 1964}, {"id": "104438", "pages": 0, "doctype": null, "year": 1962}], "latitude": 16.3533, "extinct": false, "macroareas": ["North America"], "id": "mopa1243", "longitude": -89.0673}, "tson1249": {"med": {"id": "15691", "pages": 520, "doctype": "grammar", "year": 1965}, "name": "Tsonga", "sources": [{"id": "15691", "pages": 520, "doctype": "grammar", "year": 1965}, {"id": "36602", "pages": 100, "doctype": "grammar", "year": 1932}, {"id": "34265", "pages": 0, "doctype": "grammar", "year": 1908}, {"id": "124056", "pages": 0, "doctype": "grammar", "year": 1907}, {"id": "59683", "pages": 0, "doctype": "grammarsketch", "year": 1901}, {"id": "148170", "pages": 0, "doctype": "grammarsketch", "year": 1887}, {"id": "48371", "pages": 0, "doctype": "minimal", "year": 1883}], "latitude": -23.5754, "extinct": false, "macroareas": ["Africa"], "id": "tson1249", "longitude": 31.8105}, "mama1275": {"med": {"id": "148437", "pages": 8, "doctype": "grammar", "year": 1978}, "name": "Mamanwa", "sources": [{"id": "148437", "pages": 8, "doctype": "grammar", "year": 1978}, {"id": "97911", "pages": 0, "doctype": "grammar", "year": 1976}, {"id": "79983", "pages": 22, "doctype": "grammarsketch", "year": 1969}, {"id": "68056", "pages": 14, "doctype": "grammarsketch", "year": 1964}, {"id": "302746", "pages": 2, "doctype": "minimal", "year": 1896}], "latitude": 9.44744, "extinct": false, "macroareas": ["Pacific"], "id": "mama1275", "longitude": 125.548}, "mama1276": {"med": {"id": "130482", "pages": 2, "doctype": "comparative", "year": 1987}, "name": "Mamasa", "sources": [{"id": "130482", "pages": 2, "doctype": "comparative", "year": 1987}, {"id": "141729", "pages": 16, "doctype": "minimal", "year": 1930}], "latitude": -3.0811, "extinct": false, "macroareas": ["Pacific"], "id": "mama1276", "longitude": 119.484}, "mama1277": {"med": {"id": "64314", "pages": 1, "doctype": "comparative", "year": 1970}, "name": "Mamaa", "sources": [{"id": "64314", "pages": 1, "doctype": "comparative", "year": 1970}], "latitude": -6.35558, "extinct": false, "macroareas": ["Pacific"], "id": "mama1277", "longitude": 146.576}, "usil1237": {"med": {"id": "93187", "pages": -195, "doctype": "grammarsketch", "year": 1962}, "name": "Usila Chinantec", "sources": [{"id": "93187", "pages": -195, "doctype": "grammarsketch", "year": 1962}], "latitude": 17.9184, "extinct": false, "macroareas": ["North America"], "id": "usil1237", "longitude": -96.4074}, "diaa1238": {"med": {"id": "138610", "pages": 1, "doctype": "wordlist", "year": 1968}, "name": "Dia", "sources": [{"id": "138610", "pages": 1, "doctype": "wordlist", "year": 1968}], "latitude": -3.38837, "extinct": false, "macroareas": ["Pacific"], "id": "diaa1238", "longitude": 142.248}, "urni1239": {"med": {"id": "32813", "pages": 41, "doctype": "grammarsketch", "year": 2006}, "name": "Urningangg", "sources": [{"id": "32813", "pages": 41, "doctype": "grammarsketch", "year": 2006}, {"id": "130625", "pages": 3, "doctype": "comparative", "year": 1999}, {"id": "6827", "pages": 0, "doctype": "ethnographic", "year": 1970}], "latitude": -13.4766, "extinct": true, "macroareas": ["Australia"], "id": "urni1239", "longitude": 133.023}, "ston1242": {"med": {"id": "116545", "pages": 4, "doctype": "grammar", "year": 1970}, "name": "Stoney", "sources": [{"id": "116545", "pages": 4, "doctype": "grammar", "year": 1970}], "latitude": 51.1939, "extinct": false, "macroareas": ["North America"], "id": "ston1242", "longitude": -114.984}, "moza1235": {"med": null, "name": "Mozambican Sign Language", "sources": [], "latitude": -19.811, "extinct": false, "macroareas": ["Africa"], "id": "moza1235", "longitude": 34.613}, "xooo1239": {"med": {"id": "95672", "pages": 146, "doctype": "grammarsketch", "year": 1994}, "name": "!Xoo", "sources": [{"id": "95672", "pages": 146, "doctype": "grammarsketch", "year": 1994}, {"id": "109499", "pages": 23, "doctype": "grammarsketch", "year": 1973}, {"id": "146956", "pages": 16, "doctype": "grammarsketch", "year": 1958}, {"id": "61704", "pages": 2, "doctype": "grammarsketch", "year": 1927}, {"id": "55901", "pages": 0, "doctype": "wordlist", "year": 1783}], "latitude": -24.2002, "extinct": false, "macroareas": ["Africa"], "id": "xooo1239", "longitude": 20.7958}, "anda1280": {"med": {"id": "155367", "pages": 14, "doctype": "grammarsketch", "year": 2005}, "name": "Andaman Creole Hindi", "sources": [{"id": "155367", "pages": 14, "doctype": "grammarsketch", "year": 2005}, {"id": "60443", "pages": 7, "doctype": "minimal", "year": 1994}, {"id": "129062", "pages": 3, "doctype": "minimal", "year": 1908}, {"id": "306795", "pages": 3, "doctype": "minimal", "year": 1903}], "latitude": 11.676, "extinct": false, "macroareas": ["Pacific"], "id": "anda1280", "longitude": 92.738}, "vasa1239": {"med": {"id": "39432", "pages": 42, "doctype": "grammarsketch", "year": 1931}, "name": "Vasavi", "sources": [{"id": "39432", "pages": 42, "doctype": "grammarsketch", "year": 1931}, {"id": "304733", "pages": 5, "doctype": "wordlist", "year": 1850}], "latitude": 21.3624, "extinct": false, "macroareas": ["Eurasia"], "id": "vasa1239", "longitude": 73.8652}, "orow1243": {"med": {"id": "104583", "pages": 18, "doctype": "grammarsketch", "year": 1983}, "name": "Oro Win", "sources": [{"id": "104583", "pages": 18, "doctype": "grammarsketch", "year": 1983}, {"id": "44591", "pages": 45, "doctype": null, "year": 1903}, {"id": "42141", "pages": 14, "doctype": null, "year": 1886}], "latitude": -10.737, "extinct": false, "macroareas": ["South America"], "id": "orow1243", "longitude": -64.0299}, "anda1284": {"med": {"id": "306728", "pages": 0, "doctype": "wordlist", "year": 1972}, "name": "Andarum", "sources": [{"id": "306728", "pages": 0, "doctype": "wordlist", "year": 1972}, {"id": "37308", "pages": 2, "doctype": "comparative", "year": 1969}], "latitude": -4.48734, "extinct": false, "macroareas": ["Pacific"], "id": "anda1284", "longitude": 144.767}, "anda1286": {"med": {"id": "39017", "pages": 20, "doctype": "grammarsketch", "year": 1860}, "name": "Andaqui", "sources": [{"id": "39017", "pages": 20, "doctype": "grammarsketch", "year": 1860}, {"id": "107625", "pages": 0, "doctype": "ethnographic", "year": 1855}], "latitude": 2.74999, "extinct": true, "macroareas": ["South America"], "id": "anda1286", "longitude": -76.0}, "duru1236": {"med": {"id": "60438", "pages": 209, "doctype": "grammar", "year": 1953}, "name": "Duruwa", "sources": [{"id": "60438", "pages": 209, "doctype": "grammar", "year": 1953}, {"id": "164628", "pages": 0, "doctype": "wordlist", "year": 1906}], "latitude": 19.0534, "extinct": false, "macroareas": ["Eurasia"], "id": "duru1236", "longitude": 82.4881}, "east2304": {"med": {"id": "26692", "pages": 68, "doctype": "grammar", "year": 1960}, "name": "Eastern Balochi", "sources": [{"id": "26692", "pages": 68, "doctype": "grammar", "year": 1960}, {"id": "300005", "pages": 98, "doctype": "grammarsketch", "year": 1875}, {"id": "313135", "pages": 0, "doctype": "grammarsketch", "year": 1874}], "latitude": 28.0, "extinct": false, "macroareas": ["Eurasia"], "id": "east2304", "longitude": 62.0}, "togb1241": {"med": {"id": "22826", "pages": 31, "doctype": "grammar", "year": 1930}, "name": "Togbo-Vara Banda", "sources": [{"id": "22826", "pages": 31, "doctype": "grammar", "year": 1930}, {"id": "49686", "pages": 0, "doctype": "grammarsketch", "year": 1907}], "latitude": 6.35815, "extinct": false, "macroareas": ["Africa"], "id": "togb1241", "longitude": 22.7362}, "sout2649": {"med": {"id": "40097", "pages": 122, "doctype": "grammar", "year": 1996}, "name": "Southern Pashto", "sources": [{"id": "40097", "pages": 122, "doctype": "grammar", "year": 1996}, {"id": "147143", "pages": 49, "doctype": "grammar", "year": 1960}, {"id": "154403", "pages": 0, "doctype": "grammar", "year": 1955}, {"id": "113117", "pages": 0, "doctype": "grammar", "year": 1952}, {"id": "62612", "pages": 0, "doctype": "grammar", "year": 1873}], "latitude": 37.17, "extinct": false, "macroareas": ["Eurasia"], "id": "sout2649", "longitude": 68.25}, "hlep1236": {"med": {"id": "309079", "pages": 0, "doctype": "wordlist", "year": 2011}, "name": "Hlepho Phowa", "sources": [{"id": "309079", "pages": 0, "doctype": "wordlist", "year": 2011}], "latitude": 23.591, "extinct": false, "macroareas": ["Eurasia"], "id": "hlep1236", "longitude": 103.733}, "sout2640": {"med": {"id": "45755", "pages": 471, "doctype": "grammar", "year": 2000}, "name": "Southern Kurdish", "sources": [{"id": "45755", "pages": 471, "doctype": "grammar", "year": 2000}, {"id": "126565", "pages": 123, "doctype": "grammar", "year": 1977}, {"id": "7965", "pages": 206, "doctype": "dictionary", "year": 1957}, {"id": "89932", "pages": 19, "doctype": null, "year": 1955}], "latitude": 32.8977, "extinct": false, "macroareas": ["Eurasia"], "id": "sout2640", "longitude": 46.5976}, "sout2642": {"med": {"id": "13057", "pages": 164, "doctype": "grammar", "year": 1923}, "name": "Southern Balochi", "sources": [{"id": "13057", "pages": 164, "doctype": "grammar", "year": 1923}, {"id": "301339", "pages": 0, "doctype": "grammarsketch", "year": 1877}], "latitude": 25.1081, "extinct": false, "macroareas": ["Eurasia"], "id": "sout2642", "longitude": 59.7353}, "sout2645": {"med": {"id": "52114", "pages": 510, "doctype": "grammar", "year": 2004}, "name": "Southwestern Fars", "sources": [{"id": "52114", "pages": 510, "doctype": "grammar", "year": 2004}, {"id": "311777", "pages": 16, "doctype": "grammarsketch", "year": 1984}, {"id": "32407", "pages": 0, "doctype": "grammarsketch", "year": 1909}], "latitude": 29.746, "extinct": false, "macroareas": ["Eurasia"], "id": "sout2645", "longitude": 52.267}, "sout2647": {"med": {"id": "128854", "pages": 18, "doctype": "grammarsketch", "year": 2002}, "name": "Southern Luri", "sources": [{"id": "128854", "pages": 18, "doctype": "grammarsketch", "year": 2002}, {"id": "157841", "pages": 11, "doctype": "grammarsketch", "year": 1904}], "latitude": 30.4669, "extinct": false, "macroareas": ["Eurasia"], "id": "sout2647", "longitude": 50.8382}, "guya1249": {"med": {"id": "313007", "pages": 21, "doctype": "specificfeature", "year": 1976}, "name": "Guyani", "sources": [{"id": "313007", "pages": 21, "doctype": "specificfeature", "year": 1976}, {"id": "124518", "pages": 2, "doctype": "wordlist", "year": 1886}], "latitude": -34.739, "extinct": true, "macroareas": ["Australia"], "id": "guya1249", "longitude": 137.661}, "warr1257": {"med": {"id": "120945", "pages": 236, "doctype": "grammar", "year": 2003}, "name": "Warrnambool", "sources": [{"id": "120945", "pages": 236, "doctype": "grammar", "year": 2003}, {"id": "2030", "pages": 155, "doctype": "grammarsketch", "year": 1978}], "latitude": -38.345, "extinct": true, "macroareas": ["Australia"], "id": "warr1257", "longitude": 142.4608}, "warr1255": {"med": {"id": "22265", "pages": 145, "doctype": "grammar", "year": 1981}, "name": "Warrgamay", "sources": [{"id": "22265", "pages": 145, "doctype": "grammar", "year": 1981}, {"id": "22914", "pages": 4, "doctype": "wordlist", "year": 1886}], "latitude": -18.5468, "extinct": false, "macroareas": ["Australia"], "id": "warr1255", "longitude": 146.179}, "warr1258": {"med": {"id": "1206", "pages": 128, "doctype": "grammar", "year": 2009}, "name": "Warrwa", "sources": [{"id": "1206", "pages": 128, "doctype": "grammar", "year": 2009}, {"id": "313756", "pages": 42, "doctype": "grammar", "year": 2006}, {"id": "300276", "pages": 6, "doctype": "grammar", "year": 1995}, {"id": "4588", "pages": 64, "doctype": "grammarsketch", "year": 1994}, {"id": "3842", "pages": 2, "doctype": "grammarsketch", "year": 1952}, {"id": "4167", "pages": 1, "doctype": "wordlist", "year": 1940}, {"id": "64", "pages": 2, "doctype": null, "year": 1939}], "latitude": -17.0965, "extinct": true, "macroareas": ["Australia"], "id": "warr1258", "longitude": 123.971}, "piji1239": {"med": {"id": "314252", "pages": 0, "doctype": "grammar", "year": 2007}, "name": "Pijin", "sources": [{"id": "314252", "pages": 0, "doctype": "grammar", "year": 2007}, {"id": "175664", "pages": 0, "doctype": "grammar", "year": 1978}, {"id": "29535", "pages": 29, "doctype": null, "year": 1968}], "latitude": -9.567, "extinct": false, "macroareas": ["Pacific"], "id": "piji1239", "longitude": 160.137}, "nyaw1247": {"med": {"id": "122327", "pages": 51, "doctype": "grammar", "year": 1983}, "name": "Nyawaygi", "sources": [{"id": "122327", "pages": 51, "doctype": "grammar", "year": 1983}, {"id": "152630", "pages": 6, "doctype": "wordlist", "year": 1886}], "latitude": -18.8743, "extinct": true, "macroareas": ["Australia"], "id": "nyaw1247", "longitude": 146.216}, "nyaw1245": {"med": {"id": "9286", "pages": 0, "doctype": "phonology", "year": 1984}, "name": "Nyaw", "sources": [{"id": "9286", "pages": 0, "doctype": "phonology", "year": 1984}], "latitude": 17.1213, "extinct": false, "macroareas": ["Eurasia"], "id": "nyaw1245", "longitude": 104.151}, "kaza1248": {"med": {"id": "36524", "pages": 244, "doctype": "grammar", "year": 1987}, "name": "Kazakh", "sources": [{"id": "36524", "pages": 244, "doctype": "grammar", "year": 1987}, {"id": "102249", "pages": 140, "doctype": "grammar", "year": 1959}, {"id": "86606", "pages": 122, "doctype": "grammarsketch", "year": 1957}, {"id": "43970", "pages": 9, "doctype": "dictionary", "year": 1951}, {"id": "162239", "pages": 779, "doctype": null, "year": 1946}, {"id": "48359", "pages": 302, "doctype": null, "year": 1901}], "latitude": 41.8729, "extinct": false, "macroareas": ["Eurasia"], "id": "kaza1248", "longitude": 65.7709}, "bamw1238": {"med": {"id": "86407", "pages": 20, "doctype": "grammarsketch", "year": 1990}, "name": "Bamwe", "sources": [{"id": "86407", "pages": 20, "doctype": "grammarsketch", "year": 1990}], "latitude": 2.16773, "extinct": false, "macroareas": ["Africa"], "id": "bamw1238", "longitude": 19.1644}, "otom1276": {"med": {"id": "32305", "pages": 51, "doctype": "phonology", "year": 1936}, "name": "Otomaco", "sources": [{"id": "32305", "pages": 51, "doctype": "phonology", "year": 1936}, {"id": "11117", "pages": 2, "doctype": "wordlist", "year": 1882}, {"id": "133178", "pages": 63, "doctype": "overview", "year": 1785}], "latitude": 7.869912, "extinct": true, "macroareas": ["South America"], "id": "otom1276", "longitude": -70.997315}, "sanu1240": {"med": {"id": "8622", "pages": 234, "doctype": "grammar", "year": 1990}, "name": "Sanuma", "sources": [{"id": "8622", "pages": 234, "doctype": "grammar", "year": 1990}, {"id": "31121", "pages": 19, "doctype": "wordlist", "year": 1962}, {"id": "130192", "pages": 0, "doctype": "wordlist", "year": 1960}, {"id": "154844", "pages": 0, "doctype": "wordlist", "year": 1956}], "latitude": 1.31875, "extinct": false, "macroareas": ["South America"], "id": "sanu1240", "longitude": -67.6498}, "kate1253": {"med": {"id": "93477", "pages": 41, "doctype": "grammar", "year": 1976}, "name": "Kate", "sources": [{"id": "93477", "pages": 41, "doctype": "grammar", "year": 1976}, {"id": "163422", "pages": 0, "doctype": "grammar", "year": 1962}, {"id": "152787", "pages": 83, "doctype": "grammarsketch", "year": 1895}, {"id": "11123", "pages": 2, "doctype": "wordlist", "year": 1890}], "latitude": -6.4795, "extinct": false, "macroareas": ["Pacific"], "id": "kate1253", "longitude": 147.757}, "egyp1253": {"med": {"id": "129171", "pages": 474, "doctype": "grammar", "year": 2006}, "name": "Egyptian Arabic", "sources": [{"id": "129171", "pages": 474, "doctype": "grammar", "year": 2006}, {"id": "151812", "pages": 346, "doctype": "grammar", "year": 1981}, {"id": "72772", "pages": 297, "doctype": "grammar", "year": 1956}, {"id": "106029", "pages": 16, "doctype": "grammar", "year": 1926}, {"id": "17316", "pages": 0, "doctype": "grammar", "year": 1917}, {"id": "17755", "pages": 0, "doctype": "grammar", "year": 1912}, {"id": "26032", "pages": 0, "doctype": "grammar", "year": 1907}, {"id": "151707", "pages": 36, "doctype": "grammarsketch", "year": 1897}, {"id": "87163", "pages": 0, "doctype": "grammarsketch", "year": 1896}, {"id": "104707", "pages": 0, "doctype": "grammarsketch", "year": 1886}, {"id": "84000", "pages": 0, "doctype": "wordlist", "year": 1837}, {"id": "54454", "pages": 0, "doctype": null, "year": 1830}, {"id": "154760", "pages": 0, "doctype": null, "year": 1821}], "latitude": 31.0, "extinct": false, "macroareas": ["Africa"], "id": "egyp1253", "longitude": 31.0}, "arib1241": {"med": {"id": "108822", "pages": 19, "doctype": "grammarsketch", "year": 1997}, "name": "Aribwatsa", "sources": [{"id": "108822", "pages": 19, "doctype": "grammarsketch", "year": 1997}, {"id": "158598", "pages": 6, "doctype": "phonology", "year": 1989}], "latitude": -6.72266, "extinct": true, "macroareas": ["Pacific"], "id": "arib1241", "longitude": 146.991}, "gela1263": {"med": {"id": "300643", "pages": 0, "doctype": "grammar", "year": 1975}, "name": "Gela", "sources": [{"id": "300643", "pages": 0, "doctype": "grammar", "year": 1975}, {"id": "37367", "pages": 36, "doctype": "grammarsketch", "year": 1937}, {"id": "99266", "pages": 0, "doctype": "grammarsketch", "year": 1885}], "latitude": -9.04587, "extinct": false, "macroareas": ["Pacific"], "id": "gela1263", "longitude": 160.186}, "nepa1250": {"med": null, "name": "Nepalese Sign Language", "sources": [], "latitude": 27.6993, "extinct": false, "macroareas": ["Eurasia"], "id": "nepa1250", "longitude": 85.3041}, "nepa1252": {"med": {"id": "156122", "pages": 438, "doctype": "grammar", "year": 1963}, "name": "Nepali", "sources": [{"id": "156122", "pages": 438, "doctype": "grammar", "year": 1963}, {"id": "147991", "pages": 0, "doctype": "grammar", "year": 1949}, {"id": "112349", "pages": 41, "doctype": "grammarsketch", "year": 1927}, {"id": "50321", "pages": 0, "doctype": "text", "year": 1916}], "latitude": 27.5947, "extinct": false, "macroareas": ["Eurasia"], "id": "nepa1252", "longitude": 87.6201}, "nepa1253": {"med": {"id": "144212", "pages": 50, "doctype": "grammarsketch", "year": 2001}, "name": "Nepali Kurux", "sources": [{"id": "144212", "pages": 50, "doctype": "grammarsketch", "year": 2001}, {"id": "9917", "pages": 33, "doctype": "grammarsketch", "year": 1973}, {"id": "120389", "pages": 24, "doctype": "grammarsketch", "year": 1972}, {"id": "128276", "pages": 4, "doctype": "minimal", "year": 1970}, {"id": "27141", "pages": 4, "doctype": "overview", "year": 1899}], "latitude": 26.7206, "extinct": false, "macroareas": ["Eurasia"], "id": "nepa1253", "longitude": 86.0025}, "alya1239": {"med": {"id": "5424", "pages": 342, "doctype": "grammar", "year": 1970}, "name": "Alyawarr", "sources": [{"id": "5424", "pages": 342, "doctype": "grammar", "year": 1970}, {"id": "1445", "pages": 96, "doctype": "ethnographic", "year": 1899}], "latitude": -21.0427, "extinct": false, "macroareas": ["Australia"], "id": "alya1239", "longitude": 136.835}, "rakh1245": {"med": {"id": "177752", "pages": 46, "doctype": "grammarsketch", "year": 1995}, "name": "Rakhine", "sources": [{"id": "177752", "pages": 46, "doctype": "grammarsketch", "year": 1995}, {"id": "117004", "pages": 21, "doctype": "phonology", "year": 1985}, {"id": "138433", "pages": 3, "doctype": "phonology", "year": 1965}, {"id": "73243", "pages": 12, "doctype": "wordlist", "year": 1903}, {"id": "104329", "pages": 5, "doctype": "wordlist", "year": 1846}], "latitude": 21.4531, "extinct": false, "macroareas": ["Eurasia"], "id": "rakh1245", "longitude": 92.5966}, "boan1243": {"med": {"id": "74205", "pages": 132, "doctype": "grammarsketch", "year": 1986}, "name": "Boano (Sulawesi)", "sources": [{"id": "74205", "pages": 132, "doctype": "grammarsketch", "year": 1986}, {"id": "63583", "pages": 2, "doctype": "wordlist", "year": 1979}], "latitude": 0.51152, "extinct": false, "macroareas": ["Pacific"], "id": "boan1243", "longitude": 120.992}, "boan1242": {"med": {"id": "13004", "pages": 3, "doctype": "wordlist", "year": 1983}, "name": "Boano (Maluku)", "sources": [{"id": "13004", "pages": 3, "doctype": "wordlist", "year": 1983}, {"id": "313063", "pages": 0, "doctype": "wordlist", "year": 1859}], "latitude": -2.95535, "extinct": false, "macroareas": ["Pacific"], "id": "boan1242", "longitude": 127.953}, "katb1237": {"med": {"id": "151851", "pages": 229, "doctype": "grammar", "year": 2006}, "name": "Katbol", "sources": [{"id": "151851", "pages": 229, "doctype": "grammar", "year": 2006}, {"id": "52375", "pages": 2, "doctype": "wordlist", "year": 1976}], "latitude": -16.2701, "extinct": false, "macroareas": ["Pacific"], "id": "katb1237", "longitude": 167.484}, "embe1259": {"med": {"id": "27897", "pages": 0, "doctype": "grammar", "year": 1985}, "name": "Embera-Baudo", "sources": [{"id": "27897", "pages": 0, "doctype": "grammar", "year": 1985}, {"id": "306145", "pages": 9, "doctype": "wordlist", "year": 1894}], "latitude": 5.23658, "extinct": false, "macroareas": ["South America"], "id": "embe1259", "longitude": -77.1533}, "utes1238": {"med": {"id": "92433", "pages": 464, "doctype": "grammar", "year": 2011}, "name": "Ute-Southern Paiute", "sources": [{"id": "92433", "pages": 464, "doctype": "grammar", "year": 2011}, {"id": "91202", "pages": 411, "doctype": "grammar", "year": 1980}, {"id": "24603", "pages": 286, "doctype": "grammar", "year": 1975}, {"id": "182486", "pages": 22, "doctype": "grammarsketch", "year": 1909}, {"id": "28562", "pages": 14, "doctype": "grammarsketch", "year": 1908}, {"id": "75804", "pages": 9, "doctype": "wordlist", "year": 1855}], "latitude": 40.0965, "extinct": false, "macroareas": ["North America"], "id": "utes1238", "longitude": -110.305}, "tanj1247": {"med": {"id": "63222", "pages": 0, "doctype": "wordlist", "year": 2006}, "name": "Tanjijili", "sources": [{"id": "63222", "pages": 0, "doctype": "wordlist", "year": 2006}, {"id": "71385", "pages": 0, "doctype": null, "year": 1979}], "latitude": 9.40121, "extinct": false, "macroareas": ["Africa"], "id": "tanj1247", "longitude": 6.87432}, "bent1237": {"med": {"id": "75221", "pages": 17, "doctype": "overview", "year": 1987}, "name": "Bentong", "sources": [{"id": "75221", "pages": 17, "doctype": "overview", "year": 1987}], "latitude": -4.76004, "extinct": false, "macroareas": ["Pacific"], "id": "bent1237", "longitude": 119.806}, "inla1260": {"med": {"id": "51123", "pages": 0, "doctype": "wordlist", "year": 2001}, "name": "Inlaod Itneg", "sources": [{"id": "51123", "pages": 0, "doctype": "wordlist", "year": 2001}, {"id": "180900", "pages": 5, "doctype": "comparative", "year": 1997}], "latitude": 17.6175, "extinct": false, "macroareas": ["Pacific"], "id": "inla1260", "longitude": 120.654}, "ajyi1238": {"med": {"id": "71500", "pages": 311, "doctype": "grammar", "year": 1982}, "name": "Ajyininka Apurucayali", "sources": [{"id": "71500", "pages": 311, "doctype": "grammar", "year": 1982}, {"id": "19816", "pages": 294, "doctype": "grammar", "year": 1978}, {"id": "94138", "pages": 6, "doctype": "wordlist", "year": 1975}, {"id": "119553", "pages": 5, "doctype": "wordlist", "year": 1973}], "latitude": -9.82364, "extinct": false, "macroareas": ["South America"], "id": "ajyi1238", "longitude": -74.6195}, "bret1244": {"med": {"id": "127667", "pages": 610, "doctype": "grammar", "year": 2005}, "name": "Breton", "sources": [{"id": "127667", "pages": 610, "doctype": "grammar", "year": 2005}, {"id": "85552", "pages": 419, "doctype": "grammar", "year": 1986}, {"id": "11935", "pages": 410, "doctype": "grammar", "year": 1970}, {"id": "140364", "pages": 254, "doctype": "grammar", "year": 1868}], "latitude": 48.2452, "extinct": false, "macroareas": ["Eurasia"], "id": "bret1244", "longitude": -3.78934}, "espe1235": {"med": {"id": "54850", "pages": 100, "doctype": "grammar", "year": 1998}, "name": "Esperanto", "sources": [{"id": "54850", "pages": 100, "doctype": "grammar", "year": 1998}, {"id": "102074", "pages": 0, "doctype": "grammar", "year": 1910}], "latitude": 49.3273, "extinct": false, "macroareas": ["Eurasia"], "id": "espe1235", "longitude": 2.81045}, "kooo1244": {"med": {"id": "40143", "pages": 17, "doctype": "specificfeature", "year": 1978}, "name": "Ko", "sources": [{"id": "40143", "pages": 17, "doctype": "specificfeature", "year": 1978}, {"id": "137294", "pages": 1, "doctype": "wordlist", "year": 1931}], "latitude": 10.7321, "extinct": false, "macroareas": ["Africa"], "id": "kooo1244", "longitude": 31.5399}, "tont1239": {"med": {"id": "21368", "pages": 259, "doctype": "grammar", "year": 1908}, "name": "Tontemboan", "sources": [{"id": "21368", "pages": 259, "doctype": "grammar", "year": 1908}, {"id": "131714", "pages": 100, "doctype": "grammarsketch", "year": 1892}], "latitude": 1.24813, "extinct": false, "macroareas": ["Pacific"], "id": "tont1239", "longitude": 124.654}, "donn1238": {"med": {"id": "85733", "pages": 176, "doctype": "grammar", "year": 1969}, "name": "Donno So Dogon", "sources": [{"id": "85733", "pages": 176, "doctype": "grammar", "year": 1969}, {"id": "32619", "pages": 74, "doctype": "grammarsketch", "year": 1921}, {"id": "67460", "pages": 0, "doctype": null, "year": 1912}], "latitude": 14.3402, "extinct": false, "macroareas": ["Africa"], "id": "donn1238", "longitude": -3.51468}, "ifoo1237": {"med": {"id": "24951", "pages": 7, "doctype": "wordlist", "year": 1983}, "name": "Ifo", "sources": [{"id": "24951", "pages": 7, "doctype": "wordlist", "year": 1983}, {"id": "79320", "pages": 2, "doctype": "wordlist", "year": 1889}], "latitude": -18.7668, "extinct": true, "macroareas": ["Pacific"], "id": "ifoo1237", "longitude": 169.007}, "area1240": {"med": {"id": "152245", "pages": 40, "doctype": "grammarsketch", "year": 1931}, "name": "'Are'are", "sources": [{"id": "152245", "pages": 40, "doctype": "grammarsketch", "year": 1931}], "latitude": -9.20699, "extinct": false, "macroareas": ["Pacific"], "id": "area1240", "longitude": 161.158}, "nali1245": {"med": {"id": "27359", "pages": 19, "doctype": "text", "year": 1989}, "name": "Nali", "sources": [{"id": "27359", "pages": 19, "doctype": "text", "year": 1989}, {"id": "36109", "pages": 3, "doctype": "wordlist", "year": 1975}], "latitude": -2.14273, "extinct": false, "macroareas": ["Pacific"], "id": "nali1245", "longitude": 147.202}, "nali1244": {"med": {"id": "55067", "pages": 347, "doctype": "grammar", "year": 1994}, "name": "Nalik", "sources": [{"id": "55067", "pages": 347, "doctype": "grammar", "year": 1994}, {"id": "98107", "pages": 2, "doctype": "comparative", "year": 1988}], "latitude": -2.94411, "extinct": false, "macroareas": ["Pacific"], "id": "nali1244", "longitude": 151.332}, "matu1259": {"med": {"id": "119839", "pages": 326, "doctype": "grammar", "year": 2002}, "name": "Matumbi", "sources": [{"id": "119839", "pages": 326, "doctype": "grammar", "year": 2002}, {"id": "24271", "pages": 19, "doctype": "grammar", "year": 1990}, {"id": "121271", "pages": 63, "doctype": "grammarsketch", "year": 1912}], "latitude": -8.53734, "extinct": false, "macroareas": ["Africa"], "id": "matu1259", "longitude": 39.0409}, "emae1237": {"med": {"id": "158579", "pages": 55, "doctype": "grammar", "year": 1962}, "name": "Emae", "sources": [{"id": "158579", "pages": 55, "doctype": "grammar", "year": 1962}, {"id": "53206", "pages": 1, "doctype": "wordlist", "year": 1919}], "latitude": -17.052, "extinct": false, "macroareas": ["Pacific"], "id": "emae1237", "longitude": 168.399}, "dusu1271": {"med": {"id": "135116", "pages": 21, "doctype": "wordlist", "year": 1990}, "name": "Dusun Deyah", "sources": [{"id": "135116", "pages": 21, "doctype": "wordlist", "year": 1990}, {"id": "7677", "pages": 5, "doctype": "wordlist", "year": 1967}], "latitude": -1.95514, "extinct": false, "macroareas": ["Pacific"], "id": "dusu1271", "longitude": 115.578}, "tawa1286": {"med": {"id": "30534", "pages": 110, "doctype": "grammar", "year": 1974}, "name": "Tawallammat Tamajaq", "sources": [{"id": "30534", "pages": 110, "doctype": "grammar", "year": 1974}, {"id": "30531", "pages": 74, "doctype": "grammar", "year": 1973}, {"id": "99083", "pages": 69, "doctype": "grammar", "year": 1972}, {"id": "148633", "pages": 8, "doctype": "grammar", "year": 1937}, {"id": "129069", "pages": 0, "doctype": "grammar", "year": 1896}, {"id": "61312", "pages": 0, "doctype": "grammarsketch", "year": 1884}, {"id": "48964", "pages": 0, "doctype": "grammarsketch", "year": 1862}, {"id": "118184", "pages": 0, "doctype": "grammarsketch", "year": 1858}, {"id": "54502", "pages": 0, "doctype": "grammarsketch", "year": 1857}, {"id": "59876", "pages": 0, "doctype": "ethnographic", "year": 1854}, {"id": "136437", "pages": 0, "doctype": "ethnographic", "year": 1848}, {"id": "163647", "pages": 4, "doctype": null, "year": 1826}], "latitude": 13.9878, "extinct": false, "macroareas": ["Africa"], "id": "tawa1286", "longitude": 4.47692}, "sioo1240": {"med": {"id": "308795", "pages": 0, "doctype": "grammarsketch", "year": 2008}, "name": "Sio", "sources": [{"id": "308795", "pages": 0, "doctype": "grammarsketch", "year": 2008}, {"id": "145268", "pages": 0, "doctype": "grammarsketch", "year": 1987}, {"id": "99116", "pages": 16, "doctype": "comparative", "year": 1980}, {"id": "312565", "pages": 21, "doctype": "ethnographic", "year": 1934}, {"id": "140059", "pages": 15, "doctype": null, "year": 1931}], "latitude": -5.96037, "extinct": false, "macroareas": ["Pacific"], "id": "sioo1240", "longitude": 147.353}, "colu1241": {"med": {"id": "24675", "pages": 238, "doctype": "grammar", "year": 2003}, "name": "Columbia-Wenatchi", "sources": [{"id": "24675", "pages": 238, "doctype": "grammar", "year": 2003}, {"id": "115995", "pages": 31, "doctype": "grammarsketch", "year": 1996}, {"id": "133004", "pages": 7, "doctype": "wordlist", "year": 1967}], "latitude": 48.217, "extinct": false, "macroareas": ["North America"], "id": "colu1241", "longitude": -118.454}, "umbi1243": {"med": {"id": "3489", "pages": 24, "doctype": "grammar", "year": 2008}, "name": "Umbindhamu", "sources": [{"id": "3489", "pages": 24, "doctype": "grammar", "year": 2008}, {"id": "303408", "pages": 9, "doctype": "comparative", "year": 1969}, {"id": "6763", "pages": 5, "doctype": "comparative", "year": 1935}], "latitude": -13.921, "extinct": true, "macroareas": ["Australia"], "id": "umbi1243", "longitude": 143.328}, "mirg1238": {"med": {"id": "50825", "pages": 47, "doctype": "comparative", "year": 1993}, "name": "Mirgan", "sources": [{"id": "50825", "pages": 47, "doctype": "comparative", "year": 1993}], "latitude": 23.4305, "extinct": false, "macroareas": ["Eurasia"], "id": "mirg1238", "longitude": 81.336}, "kita1249": {"med": {"id": "60305", "pages": 66, "doctype": "grammar", "year": 1984}, "name": "Kita Maninkakan", "sources": [{"id": "60305", "pages": 66, "doctype": "grammar", "year": 1984}], "latitude": 13.1798, "extinct": false, "macroareas": ["Africa"], "id": "kita1249", "longitude": -9.49151}, "chil1275": {"med": {"id": "132470", "pages": 10, "doctype": "socling", "year": 1992}, "name": "Chilisso", "sources": [{"id": "132470", "pages": 10, "doctype": "socling", "year": 1992}], "latitude": 35.2494, "extinct": false, "macroareas": ["Eurasia"], "id": "chil1275", "longitude": 73.3344}, "kuvi1243": {"med": {"id": "147910", "pages": 254, "doctype": "grammar", "year": 1911}, "name": "Kuvi", "sources": [{"id": "147910", "pages": 254, "doctype": "grammar", "year": 1911}, {"id": "304344", "pages": 0, "doctype": "wordlist", "year": 1906}], "latitude": 18.8832, "extinct": false, "macroareas": ["Eurasia"], "id": "kuvi1243", "longitude": 83.7552}, "sana1281": {"med": {"id": "15065", "pages": 30, "doctype": "grammarsketch", "year": 1941}, "name": "Sanapana", "sources": [{"id": "15065", "pages": 30, "doctype": "grammarsketch", "year": 1941}, {"id": "92880", "pages": 27, "doctype": "wordlist", "year": 1900}, {"id": "118417", "pages": 1, "doctype": "overview", "year": 1894}], "latitude": -22.1145, "extinct": false, "macroareas": ["South America"], "id": "sana1281", "longitude": -58.907}, "sana1286": {"med": {"id": "135876", "pages": 3, "doctype": "overview", "year": 1994}, "name": "San Agustin Mixtepec Zapotec", "sources": [{"id": "135876", "pages": 3, "doctype": "overview", "year": 1994}], "latitude": 16.2202, "extinct": false, "macroareas": ["North America"], "id": "sana1286", "longitude": -96.3362}, "peer1241": {"med": {"id": "67359", "pages": 0, "doctype": "grammar", "year": 1981}, "name": "Peere", "sources": [{"id": "67359", "pages": 0, "doctype": "grammar", "year": 1981}, {"id": "103520", "pages": 5, "doctype": "wordlist", "year": 1941}, {"id": "128741", "pages": 1, "doctype": "wordlist", "year": 1910}], "latitude": 7.82186, "extinct": false, "macroareas": ["Africa"], "id": "peer1241", "longitude": 12.2518}, "hurr1240": {"med": {"id": "26093", "pages": 446, "doctype": "grammar", "year": 1964}, "name": "Hurrian", "sources": [{"id": "26093", "pages": 446, "doctype": "grammar", "year": 1964}, {"id": "122365", "pages": 0, "doctype": "grammar", "year": 1941}, {"id": "18892", "pages": 36, "doctype": "grammarsketch", "year": 1939}], "latitude": 40.7339, "extinct": true, "macroareas": ["Eurasia"], "id": "hurr1240", "longitude": 43.3154}, "wotu1240": {"med": {"id": "98920", "pages": 196, "doctype": "grammarsketch", "year": 1986}, "name": "Wotu", "sources": [{"id": "98920", "pages": 196, "doctype": "grammarsketch", "year": 1986}, {"id": "42298", "pages": 20, "doctype": "wordlist", "year": 1898}], "latitude": -2.59593, "extinct": false, "macroareas": ["Pacific"], "id": "wotu1240", "longitude": 120.9}, "kuan1246": {"med": {"id": "92676", "pages": 15, "doctype": "overview", "year": 2003}, "name": "Kuan", "sources": [{"id": "92676", "pages": 15, "doctype": "overview", "year": 2003}], "latitude": 18.0769, "extinct": false, "macroareas": ["Eurasia"], "id": "kuan1246", "longitude": 105.31}, "kuan1247": {"med": {"id": "43038", "pages": 311, "doctype": "grammar", "year": 2004}, "name": "Kuanyama", "sources": [{"id": "43038", "pages": 311, "doctype": "grammar", "year": 2004}, {"id": "146905", "pages": 287, "doctype": "grammar", "year": 1954}, {"id": "116516", "pages": 281, "doctype": "grammar", "year": 1910}, {"id": "91385", "pages": 0, "doctype": "grammar", "year": 1891}, {"id": "92443", "pages": 7, "doctype": "comparative", "year": 1889}, {"id": "160650", "pages": 2, "doctype": "ethnographic", "year": 1857}, {"id": "81787", "pages": 4, "doctype": null, "year": 1854}], "latitude": -17.7176, "extinct": false, "macroareas": ["Africa"], "id": "kuan1247", "longitude": 16.58}, "xink1235": {"med": {"id": "112861", "pages": 52, "doctype": "grammarsketch", "year": 2010}, "name": "Xinka-Jumaytepeque", "sources": [{"id": "112861", "pages": 52, "doctype": "grammarsketch", "year": 2010}, {"id": "12250", "pages": 5, "doctype": "comparative", "year": 1979}], "latitude": 14.341898, "extinct": true, "macroareas": ["North America"], "id": "xink1235", "longitude": -90.256519}, "watu1247": {"med": {"id": "112913", "pages": 14, "doctype": "wordlist", "year": 1878}, "name": "Watubela", "sources": [{"id": "112913", "pages": 14, "doctype": "wordlist", "year": 1878}, {"id": "151292", "pages": 11, "doctype": "wordlist", "year": 1867}], "latitude": -4.47294, "extinct": false, "macroareas": ["Pacific"], "id": "watu1247", "longitude": 131.641}, "garh1243": {"med": {"id": "98706", "pages": 0, "doctype": "grammarsketch", "year": 1990}, "name": "Garhwali", "sources": [{"id": "98706", "pages": 0, "doctype": "grammarsketch", "year": 1990}, {"id": "83106", "pages": 0, "doctype": "grammarsketch", "year": 1966}, {"id": "142976", "pages": 0, "doctype": "grammarsketch", "year": 1959}, {"id": "308849", "pages": 0, "doctype": "grammarsketch", "year": 1941}, {"id": "50321", "pages": 0, "doctype": "text", "year": 1916}], "latitude": 30.5061, "extinct": false, "macroareas": ["Eurasia"], "id": "garh1243", "longitude": 78.7201}, "nisi1238": {"med": {"id": "66453", "pages": 0, "doctype": "overview", "year": 1999}, "name": "Nisi (China)", "sources": [{"id": "66453", "pages": 0, "doctype": "overview", "year": 1999}], "latitude": 23.418, "extinct": false, "macroareas": ["Eurasia"], "id": "nisi1238", "longitude": 104.85}, "timo1258": {"med": {"id": "307143", "pages": 38, "doctype": "grammarsketch", "year": 1990}, "name": "Timor Pidgin", "sources": [{"id": "307143", "pages": 38, "doctype": "grammarsketch", "year": 1990}], "latitude": -8.65995, "extinct": true, "macroareas": ["Pacific"], "id": "timo1258", "longitude": 125.59}, "thom1243": {"med": {"id": "89647", "pages": 280, "doctype": "grammar", "year": 1997}, "name": "Thompson", "sources": [{"id": "89647", "pages": 280, "doctype": "grammar", "year": 1997}, {"id": "76863", "pages": 46, "doctype": "grammarsketch", "year": 1880}, {"id": "137444", "pages": 0, "doctype": null, "year": 1853}], "latitude": 50.1668, "extinct": false, "macroareas": ["North America"], "id": "thom1243", "longitude": -120.193}, "tuku1254": {"med": {"id": "159417", "pages": 3, "doctype": "wordlist", "year": 1998}, "name": "Tukudede", "sources": [{"id": "159417", "pages": 3, "doctype": "wordlist", "year": 1998}, {"id": "12850", "pages": 3, "doctype": "wordlist", "year": 1944}], "latitude": -8.6788, "extinct": false, "macroareas": ["Pacific"], "id": "tuku1254", "longitude": 125.283}, "kisa1266": {"med": {"id": "99122", "pages": 153, "doctype": "grammarsketch", "year": 1991}, "name": "Kisar", "sources": [{"id": "99122", "pages": 153, "doctype": "grammarsketch", "year": 1991}, {"id": "137430", "pages": 65, "doctype": "wordlist", "year": 1886}, {"id": "11282", "pages": 10, "doctype": "wordlist", "year": 1841}], "latitude": -8.05122, "extinct": false, "macroareas": ["Pacific"], "id": "kisa1266", "longitude": 127.18}, "kisa1264": {"med": null, "name": "Kisankasa", "sources": [], "latitude": -8.5411, "extinct": false, "macroareas": ["Africa"], "id": "kisa1264", "longitude": 35.6751}, "malp1246": {"med": {"id": "63347", "pages": 62, "doctype": "grammar", "year": 2008}, "name": "Mal Paharia", "sources": [{"id": "63347", "pages": 62, "doctype": "grammar", "year": 2008}, {"id": "21734", "pages": 38, "doctype": "grammarsketch", "year": 1978}, {"id": "310178", "pages": 0, "doctype": "wordlist", "year": 1966}, {"id": "142625", "pages": 0, "doctype": "wordlist", "year": 1903}], "latitude": 24.087, "extinct": false, "macroareas": ["Eurasia"], "id": "malp1246", "longitude": 87.3507}, "loko1255": {"med": {"id": "131269", "pages": 80, "doctype": "grammarsketch", "year": 1983}, "name": "Loko", "sources": [{"id": "131269", "pages": 80, "doctype": "grammarsketch", "year": 1983}, {"id": "50615", "pages": 59, "doctype": "grammarsketch", "year": 1964}, {"id": "115080", "pages": 3, "doctype": "wordlist", "year": 1916}, {"id": "66179", "pages": 0, "doctype": "wordlist", "year": 1854}], "latitude": 9.11838, "extinct": false, "macroareas": ["Africa"], "id": "loko1255", "longitude": -12.1583}, "loko1254": {"med": {"id": "122368", "pages": 28, "doctype": "grammarsketch", "year": 1944}, "name": "Lokoya", "sources": [{"id": "122368", "pages": 28, "doctype": "grammarsketch", "year": 1944}, {"id": "83914", "pages": 0, "doctype": "overview", "year": 1932}], "latitude": 4.64724, "extinct": false, "macroareas": ["Africa"], "id": "loko1254", "longitude": 32.2625}, "guaj1256": {"med": {"id": "114689", "pages": 0, "doctype": "grammar", "year": 2007}, "name": "Guaja", "sources": [{"id": "114689", "pages": 0, "doctype": "grammar", "year": 2007}, {"id": "155707", "pages": 0, "doctype": "grammarsketch", "year": 2002}, {"id": "116697", "pages": 75, "doctype": "phonology", "year": 1987}, {"id": "66386", "pages": 3, "doctype": "wordlist", "year": 1951}, {"id": "150561", "pages": 2, "doctype": "ethnographic", "year": 1948}], "latitude": -3.93574, "extinct": false, "macroareas": ["South America"], "id": "guaj1256", "longitude": -46.3683}, "bhot1235": {"med": {"id": "303964", "pages": 0, "doctype": "phonology", "year": 2011}, "name": "Bhoti Kinnauri", "sources": [{"id": "303964", "pages": 0, "doctype": "phonology", "year": 2011}, {"id": "152656", "pages": 34, "doctype": "wordlist", "year": 1842}], "latitude": 31.8503, "extinct": false, "macroareas": ["Eurasia"], "id": "bhot1235", "longitude": 78.5728}, "anci1244": {"med": {"id": "102218", "pages": 779, "doctype": "grammar", "year": 1990}, "name": "Ancient Hebrew", "sources": [{"id": "102218", "pages": 779, "doctype": "grammar", "year": 1990}, {"id": "64018", "pages": 632, "doctype": "grammar", "year": 1910}, {"id": "48027", "pages": 0, "doctype": "grammar", "year": 1828}, {"id": "55388", "pages": 0, "doctype": null, "year": 1806}], "latitude": 31.7761, "extinct": true, "macroareas": ["Eurasia"], "id": "anci1244", "longitude": 35.1725}, "lauu1247": {"med": {"id": "153328", "pages": 32, "doctype": "grammar", "year": 1921}, "name": "Lau (Solomon Islands)", "sources": [{"id": "153328", "pages": 32, "doctype": "grammar", "year": 1921}], "latitude": -8.51018, "extinct": false, "macroareas": ["Pacific"], "id": "lauu1247", "longitude": 160.872}, "anci1242": {"med": {"id": "157311", "pages": 802, "doctype": "grammar", "year": 1984}, "name": "Ancient Greek (to 1453)", "sources": [{"id": "157311", "pages": 802, "doctype": "grammar", "year": 1984}, {"id": "154979", "pages": 800, "doctype": "grammar", "year": 1920}, {"id": "21536", "pages": 0, "doctype": "grammar", "year": 1905}, {"id": "33620", "pages": 0, "doctype": "grammar", "year": 1900}, {"id": "131974", "pages": 0, "doctype": null, "year": 1798}], "latitude": 39.8155, "extinct": true, "macroareas": ["Eurasia"], "id": "anci1242", "longitude": 21.9129}, "ugan1238": {"med": {"id": "315501", "pages": 0, "doctype": "dictionary", "year": 2006}, "name": "Ugandan Sign Language", "sources": [{"id": "315501", "pages": 0, "doctype": "dictionary", "year": 2006}], "latitude": 0.2475, "extinct": false, "macroareas": ["Africa"], "id": "ugan1238", "longitude": 32.4829}, "mora1273": {"med": {"id": "134562", "pages": 2, "doctype": "wordlist", "year": 1914}, "name": "Morawa", "sources": [{"id": "134562", "pages": 2, "doctype": "wordlist", "year": 1914}, {"id": "141822", "pages": 1, "doctype": "wordlist", "year": 1913}], "latitude": -10.1321, "extinct": false, "macroareas": ["Pacific"], "id": "mora1273", "longitude": 148.671}, "ande1247": {"med": {"id": "314156", "pages": 5, "doctype": "grammar", "year": 1978}, "name": "Andegerebinha", "sources": [{"id": "314156", "pages": 5, "doctype": "grammar", "year": 1978}, {"id": "1166", "pages": 2, "doctype": "grammarsketch", "year": 1901}, {"id": "105535", "pages": 0, "doctype": "grammarsketch", "year": 1897}, {"id": "150136", "pages": 0, "doctype": "wordlist", "year": 1879}], "latitude": -22.5128, "extinct": false, "macroareas": ["Australia"], "id": "ande1247", "longitude": 137.352}, "fero1244": {"med": {"id": "12478", "pages": 163, "doctype": "grammarsketch", "year": 1969}, "name": "Feroge", "sources": [{"id": "12478", "pages": 163, "doctype": "grammarsketch", "year": 1969}, {"id": "160103", "pages": 5, "doctype": "comparative", "year": 1950}], "latitude": 8.61612, "extinct": false, "macroareas": ["Africa"], "id": "fero1244", "longitude": 25.7171}, "inga1252": {"med": {"id": "7820", "pages": 214, "doctype": "grammar", "year": 1981}, "name": "Inga", "sources": [{"id": "7820", "pages": 214, "doctype": "grammar", "year": 1981}, {"id": "145025", "pages": 168, "doctype": "grammar", "year": 1976}, {"id": "125827", "pages": 46, "doctype": "grammar", "year": 1974}, {"id": "94768", "pages": 8, "doctype": "grammar", "year": 1934}, {"id": "47515", "pages": 3, "doctype": "wordlist", "year": 1891}], "latitude": 1.00313, "extinct": false, "macroareas": ["South America"], "id": "inga1252", "longitude": -76.8606}, "inga1254": {"med": {"id": "63935", "pages": 16, "doctype": "wordlist", "year": 1904}, "name": "Ingain", "sources": [{"id": "63935", "pages": 16, "doctype": "wordlist", "year": 1904}, {"id": "33026", "pages": 13, "doctype": "wordlist", "year": 1896}], "latitude": -24.621052, "extinct": true, "macroareas": ["South America"], "id": "inga1254", "longitude": -54.254151}, "hain1253": {"med": {"id": "72647", "pages": 2, "doctype": "grammarsketch", "year": 1972}, "name": "Hainyaxo Bozo", "sources": [{"id": "72647", "pages": 2, "doctype": "grammarsketch", "year": 1972}, {"id": "127504", "pages": 0, "doctype": "wordlist", "year": 1912}], "latitude": 13.8734, "extinct": false, "macroareas": ["Africa"], "id": "hain1253", "longitude": -5.65085}, "nami1258": {"med": {"id": "79964", "pages": 801, "doctype": "newtestament", "year": 2004}, "name": "Namiae", "sources": [{"id": "79964", "pages": 801, "doctype": "newtestament", "year": 2004}, {"id": "23446", "pages": 0, "doctype": null, "year": 1948}], "latitude": -9.18089, "extinct": false, "macroareas": ["Pacific"], "id": "nami1258", "longitude": 148.166}, "anta1253": {"med": {"id": "119481", "pages": 83, "doctype": "grammarsketch", "year": 1942}, "name": "Antakarinya", "sources": [{"id": "119481", "pages": 83, "doctype": "grammarsketch", "year": 1942}, {"id": "6774", "pages": 4, "doctype": null, "year": 1890}], "latitude": -27.1152, "extinct": false, "macroareas": ["Australia"], "id": "anta1253", "longitude": 134.838}, "anta1255": {"med": {"id": "90939", "pages": 0, "doctype": "grammar", "year": 1854}, "name": "Antankarana Malagasy", "sources": [{"id": "90939", "pages": 0, "doctype": "grammar", "year": 1854}], "latitude": -13.2164, "extinct": false, "macroareas": ["Africa"], "id": "anta1255", "longitude": 49.2402}, "kalu1248": {"med": {"id": "27035", "pages": 33, "doctype": "grammar", "year": 1973}, "name": "Kaluli", "sources": [{"id": "27035", "pages": 33, "doctype": "grammar", "year": 1973}, {"id": "128373", "pages": 1, "doctype": "comparative", "year": 1968}, {"id": "82660", "pages": 0, "doctype": null, "year": 1963}], "latitude": -6.45932, "extinct": false, "macroareas": ["Pacific"], "id": "kalu1248", "longitude": 142.788}, "agut1237": {"med": {"id": "52397", "pages": 25, "doctype": "grammarsketch", "year": 1992}, "name": "Agutaynen", "sources": [{"id": "52397", "pages": 25, "doctype": "grammarsketch", "year": 1992}, {"id": "27594", "pages": 7, "doctype": "comparative", "year": 1977}], "latitude": 10.5328, "extinct": false, "macroareas": ["Pacific"], "id": "agut1237", "longitude": 119.655}, "warn1244": {"med": {"id": "139267", "pages": 7, "doctype": "wordlist", "year": 1981}, "name": "Warnang", "sources": [{"id": "139267", "pages": 7, "doctype": "wordlist", "year": 1981}], "latitude": 10.594, "extinct": false, "macroareas": ["Africa"], "id": "warn1244", "longitude": 31.1574}, "sall1238": {"med": {"id": "135703", "pages": 0, "doctype": "grammar", "year": 1993}, "name": "Sallands", "sources": [{"id": "135703", "pages": 0, "doctype": "grammar", "year": 1993}], "latitude": 52.4482, "extinct": false, "macroareas": ["Eurasia"], "id": "sall1238", "longitude": 6.29104}, "akaa1242": {"med": {"id": "159016", "pages": 4, "doctype": "wordlist", "year": 1932}, "name": "Aka", "sources": [{"id": "159016", "pages": 4, "doctype": "wordlist", "year": 1932}], "latitude": 11.2101, "extinct": false, "macroareas": ["Africa"], "id": "akaa1242", "longitude": 33.6524}, "mbol1247": {"med": {"id": "9793", "pages": 45, "doctype": "grammarsketch", "year": 1971}, "name": "Mbole", "sources": [{"id": "9793", "pages": 45, "doctype": "grammarsketch", "year": 1971}, {"id": "75471", "pages": 0, "doctype": "wordlist", "year": 1906}], "latitude": -0.57181, "extinct": false, "macroareas": ["Africa"], "id": "mbol1247", "longitude": 24.0443}, "zoog1238": {"med": {"id": "52892", "pages": 434, "doctype": "grammar", "year": 2004}, "name": "Zoogocho Zapotec", "sources": [{"id": "52892", "pages": 434, "doctype": "grammar", "year": 2004}, {"id": "124711", "pages": 45, "doctype": "grammarsketch", "year": 1985}, {"id": "309010", "pages": 0, "doctype": "grammarsketch", "year": 1980}], "latitude": 17.2016, "extinct": false, "macroareas": ["North America"], "id": "zoog1238", "longitude": -96.3433}, "bilo1248": {"med": {"id": "141732", "pages": 197, "doctype": "grammar", "year": 1974}, "name": "Biloxi", "sources": [{"id": "141732", "pages": 197, "doctype": "grammar", "year": 1974}, {"id": "157969", "pages": 173, "doctype": "dictionary", "year": 1912}], "latitude": 31.32, "extinct": false, "macroareas": ["North America"], "id": "bilo1248", "longitude": -89.1951}, "amol1235": {"med": {"id": "138610", "pages": 1, "doctype": "wordlist", "year": 1968}, "name": "Amol", "sources": [{"id": "138610", "pages": 1, "doctype": "wordlist", "year": 1968}], "latitude": -3.46843, "extinct": false, "macroareas": ["Pacific"], "id": "amol1235", "longitude": 142.532}, "moro1284": {"med": {"id": "53144", "pages": 4, "doctype": "grammarsketch", "year": 1966}, "name": "Morokodo", "sources": [{"id": "53144", "pages": 4, "doctype": "grammarsketch", "year": 1966}, {"id": "150330", "pages": 1, "doctype": "wordlist", "year": 1937}, {"id": "87100", "pages": 2, "doctype": "overview", "year": 1885}], "latitude": 5.5103, "extinct": false, "macroareas": ["Africa"], "id": "moro1284", "longitude": 30.0229}, "moro1285": {"med": {"id": "101860", "pages": 91, "doctype": "grammarsketch", "year": 1971}, "name": "Moro", "sources": [{"id": "101860", "pages": 91, "doctype": "grammarsketch", "year": 1971}, {"id": "160138", "pages": 5, "doctype": "grammarsketch", "year": 1956}, {"id": "160135", "pages": 0, "doctype": "grammarsketch", "year": 1952}, {"id": "137294", "pages": 1, "doctype": "wordlist", "year": 1931}, {"id": "52692", "pages": 1, "doctype": "wordlist", "year": 1917}], "latitude": 10.9194, "extinct": false, "macroareas": ["Africa"], "id": "moro1285", "longitude": 30.2138}, "moro1286": {"med": {"id": "52375", "pages": 2, "doctype": "wordlist", "year": 1976}, "name": "Morouas", "sources": [{"id": "52375", "pages": 2, "doctype": "wordlist", "year": 1976}], "latitude": -15.3498, "extinct": false, "macroareas": ["Pacific"], "id": "moro1286", "longitude": 166.891}, "moro1287": {"med": {"id": "124314", "pages": 173, "doctype": "grammarsketch", "year": 2006}, "name": "Moronene", "sources": [{"id": "124314", "pages": 173, "doctype": "grammarsketch", "year": 2006}, {"id": "74481", "pages": 143, "doctype": "grammarsketch", "year": 1983}, {"id": "135765", "pages": 36, "doctype": "grammarsketch", "year": 1972}], "latitude": -4.62361, "extinct": false, "macroareas": ["Pacific"], "id": "moro1287", "longitude": 121.824}, "moro1281": {"med": {"id": "164329", "pages": 0, "doctype": "wordlist", "year": 2010}, "name": "Morom", "sources": [{"id": "164329", "pages": 0, "doctype": "wordlist", "year": 2010}], "latitude": 12.1461, "extinct": false, "macroareas": ["Africa"], "id": "moro1281", "longitude": 17.6465}, "nort2716": {"med": {"id": "66356", "pages": 6, "doctype": "comparative", "year": 2011}, "name": "Northern Muji", "sources": [{"id": "66356", "pages": 6, "doctype": "comparative", "year": 2011}, {"id": "36250", "pages": 22, "doctype": "ethnographic", "year": 2004}], "latitude": 23.086, "extinct": false, "macroareas": ["Eurasia"], "id": "nort2716", "longitude": 103.464}, "nort2718": {"med": {"id": "15260", "pages": 0, "doctype": "dictionary", "year": 2005}, "name": "Northern Nisu", "sources": [{"id": "15260", "pages": 0, "doctype": "dictionary", "year": 2005}, {"id": "56358", "pages": 7, "doctype": "dialectology", "year": 1997}], "latitude": 24.408, "extinct": false, "macroareas": ["Eurasia"], "id": "nort2718", "longitude": 102.456}, "bira1254": {"med": {"id": "85830", "pages": 3, "doctype": "wordlist", "year": 1983}, "name": "Birao", "sources": [{"id": "85830", "pages": 3, "doctype": "wordlist", "year": 1983}], "latitude": -9.73716, "extinct": false, "macroareas": ["Pacific"], "id": "bira1254", "longitude": 160.52}, "mugo1238": {"med": {"id": "134932", "pages": 9, "doctype": "phonology", "year": 2002}, "name": "Mugom", "sources": [{"id": "134932", "pages": 9, "doctype": "phonology", "year": 2002}], "latitude": 30.8983, "extinct": false, "macroareas": ["Eurasia"], "id": "mugo1238", "longitude": 79.4664}, "bira1253": {"med": {"id": "28433", "pages": 45, "doctype": "grammarsketch", "year": 1992}, "name": "Birale", "sources": [{"id": "28433", "pages": 45, "doctype": "grammarsketch", "year": 1992}, {"id": "106834", "pages": 5, "doctype": "wordlist", "year": 1990}, {"id": "56059", "pages": 1, "doctype": "comparative", "year": 1983}, {"id": "83655", "pages": 2, "doctype": "overview", "year": 1847}], "latitude": 5.29807, "extinct": false, "macroareas": ["Africa"], "id": "bira1253", "longitude": 37.025}, "hako1237": {"med": {"id": "98107", "pages": 2, "doctype": "comparative", "year": 1988}, "name": "Hako", "sources": [{"id": "98107", "pages": 2, "doctype": "comparative", "year": 1988}, {"id": "31674", "pages": 53, "doctype": null, "year": 1962}], "latitude": -5.06832, "extinct": false, "macroareas": ["Pacific"], "id": "hako1237", "longitude": 154.594}, "tukp1239": {"med": {"id": "13681", "pages": 0, "doctype": "grammarsketch", "year": 1989}, "name": "Tukpa", "sources": [{"id": "13681", "pages": 0, "doctype": "grammarsketch", "year": 1989}, {"id": "78648", "pages": 4, "doctype": "wordlist", "year": 1909}, {"id": "75114", "pages": 4, "doctype": "minimal", "year": 1867}], "latitude": 31.4925, "extinct": false, "macroareas": ["Eurasia"], "id": "tukp1239", "longitude": 78.1627}, "macu1260": {"med": {"id": "117063", "pages": 91, "doctype": "grammarsketch", "year": 1995}, "name": "Macuna", "sources": [{"id": "117063", "pages": 91, "doctype": "grammarsketch", "year": 1995}, {"id": "21683", "pages": 0, "doctype": "grammarsketch", "year": 1982}, {"id": "83410", "pages": 0, "doctype": "grammarsketch", "year": 1979}, {"id": "137296", "pages": 5, "doctype": "wordlist", "year": 1978}, {"id": "161469", "pages": 1, "doctype": "wordlist", "year": 1963}, {"id": "143256", "pages": 1, "doctype": "ethnographic", "year": 1949}, {"id": "99143", "pages": 0, "doctype": null, "year": 1909}], "latitude": -0.14459, "extinct": false, "macroareas": ["South America"], "id": "macu1260", "longitude": -70.0749}, "mati1250": {"med": {"id": "301466", "pages": 0, "doctype": "grammar", "year": 2006}, "name": "Matigsalug Manobo", "sources": [{"id": "301466", "pages": 0, "doctype": "grammar", "year": 2006}, {"id": "139578", "pages": 12, "doctype": "grammarsketch", "year": 1998}, {"id": "93513", "pages": 164, "doctype": "dictionary", "year": 1984}, {"id": "136553", "pages": 3, "doctype": "wordlist", "year": 1971}, {"id": "23185", "pages": -55, "doctype": "ethnographic", "year": 1953}, {"id": "75441", "pages": 8, "doctype": null, "year": 1910}], "latitude": 7.72124, "extinct": false, "macroareas": ["Pacific"], "id": "mati1250", "longitude": 125.16}, "ghot1243": {"med": {"id": "91284", "pages": 15, "doctype": "dictionary", "year": 1986}, "name": "Ghotuo", "sources": [{"id": "91284", "pages": 15, "doctype": "dictionary", "year": 1986}, {"id": "109196", "pages": 21, "doctype": "phonology", "year": 1985}, {"id": "20239", "pages": 2, "doctype": "comparative", "year": 1980}], "latitude": 7.11551, "extinct": false, "macroareas": ["Africa"], "id": "ghot1243", "longitude": 5.95663}, "saur1248": {"med": {"id": "312572", "pages": 250, "doctype": "grammar", "year": 1991}, "name": "Saurashtra", "sources": [{"id": "312572", "pages": 250, "doctype": "grammar", "year": 1991}, {"id": "114010", "pages": 310, "doctype": "dictionary", "year": 1990}, {"id": "306561", "pages": 18, "doctype": "phonology", "year": 1978}, {"id": "50330", "pages": 0, "doctype": "text", "year": 1908}], "latitude": 9.99172, "extinct": false, "macroareas": ["Eurasia"], "id": "saur1248", "longitude": 77.9427}, "saur1249": {"med": {"id": "311788", "pages": 0, "doctype": "grammar", "year": 1884}, "name": "Sauria Paharia", "sources": [{"id": "311788", "pages": 0, "doctype": "grammar", "year": 1884}, {"id": "44162", "pages": 3, "doctype": "wordlist", "year": 1848}], "latitude": 24.8124, "extinct": false, "macroareas": ["Eurasia"], "id": "saur1249", "longitude": 87.6432}, "ukpe1247": {"med": {"id": "85153", "pages": 0, "doctype": "wordlist", "year": 2010}, "name": "Ukpe-Bayobiri", "sources": [{"id": "85153", "pages": 0, "doctype": "wordlist", "year": 2010}], "latitude": 6.52883, "extinct": false, "macroareas": ["Africa"], "id": "ukpe1247", "longitude": 9.02603}, "susq1241": {"med": {"id": "132452", "pages": 38, "doctype": "wordlist", "year": 1996}, "name": "Susquehannock", "sources": [{"id": "132452", "pages": 38, "doctype": "wordlist", "year": 1996}], "latitude": 41.169, "extinct": true, "macroareas": ["North America"], "id": "susq1241", "longitude": -76.208}, "ukpe1249": {"med": {"id": "84099", "pages": 2, "doctype": "wordlist", "year": 1968}, "name": "Ukpet-Ehom", "sources": [{"id": "84099", "pages": 2, "doctype": "wordlist", "year": 1968}, {"id": "150176", "pages": 0, "doctype": "wordlist", "year": 1914}], "latitude": 5.58316, "extinct": false, "macroareas": ["Africa"], "id": "ukpe1249", "longitude": 8.10047}, "erav1244": {"med": {"id": "156042", "pages": 7, "doctype": "specificfeature", "year": 1968}, "name": "Erave", "sources": [{"id": "156042", "pages": 7, "doctype": "specificfeature", "year": 1968}, {"id": "314335", "pages": 0, "doctype": "comparative", "year": 1965}, {"id": "128519", "pages": 0, "doctype": "comparative", "year": 1962}], "latitude": -6.55011, "extinct": false, "macroareas": ["Pacific"], "id": "erav1244", "longitude": 143.918}, "tecp1235": {"med": {"id": "311011", "pages": 0, "doctype": "wordlist", "year": 1978}, "name": "Tecpatlan Totonac", "sources": [{"id": "311011", "pages": 0, "doctype": "wordlist", "year": 1978}], "latitude": 20.2957, "extinct": false, "macroareas": ["North America"], "id": "tecp1235", "longitude": -97.8436}, "iyoj1235": {"med": {"id": "147078", "pages": 308, "doctype": "grammar", "year": 1915}, "name": "Iyojwa'ja Chorote", "sources": [{"id": "147078", "pages": 308, "doctype": "grammar", "year": 1915}], "latitude": -22.1896, "extinct": false, "macroareas": ["South America"], "id": "iyoj1235", "longitude": -63.2383}, "enap1235": {"med": {"id": "306976", "pages": 0, "doctype": "grammar", "year": 2012}, "name": "E'napa Woromaipu", "sources": [{"id": "306976", "pages": 0, "doctype": "grammar", "year": 2012}, {"id": "119360", "pages": 141, "doctype": "grammarsketch", "year": 1988}, {"id": "48973", "pages": 15, "doctype": "grammarsketch", "year": 1954}, {"id": "35025", "pages": 6, "doctype": "minimal", "year": 1952}], "latitude": 6.95035, "extinct": false, "macroareas": ["South America"], "id": "enap1235", "longitude": -65.8483}, "kayo1245": {"med": {"id": "119420", "pages": 4, "doctype": "comparative", "year": 1970}, "name": "Kayong", "sources": [{"id": "119420", "pages": 4, "doctype": "comparative", "year": 1970}], "latitude": 14.9227, "extinct": false, "macroareas": ["Eurasia"], "id": "kayo1245", "longitude": 108.447}, "guam1236": {"med": {"id": "133218", "pages": 12, "doctype": "wordlist", "year": 1928}, "name": "Guamo", "sources": [{"id": "133218", "pages": 12, "doctype": "wordlist", "year": 1928}], "latitude": 9.596959, "extinct": true, "macroareas": ["South America"], "id": "guam1236", "longitude": -68.98407}, "wulg1239": {"med": {"id": "37337", "pages": 67, "doctype": "grammarsketch", "year": 2007}, "name": "Wulguru", "sources": [{"id": "37337", "pages": 67, "doctype": "grammarsketch", "year": 2007}, {"id": "120973", "pages": 6, "doctype": "wordlist", "year": 1886}], "latitude": -19.85103121, "extinct": true, "macroareas": ["Australia"], "id": "wulg1239", "longitude": 146.3453957}, "gade1236": {"med": {"id": "55065", "pages": 164, "doctype": "grammar", "year": 1988}, "name": "Gade Lohar", "sources": [{"id": "55065", "pages": 164, "doctype": "grammar", "year": 1988}, {"id": "308569", "pages": 0, "doctype": "ethnographic", "year": 1977}], "latitude": 25.8583, "extinct": false, "macroareas": ["Eurasia"], "id": "gade1236", "longitude": 78.2187}, "iyoo1238": {"med": {"id": "155523", "pages": 144, "doctype": "grammarsketch", "year": 2009}, "name": "Iyo", "sources": [{"id": "155523", "pages": 144, "doctype": "grammarsketch", "year": 2009}, {"id": "112423", "pages": 0, "doctype": "ethnographic", "year": 2000}, {"id": "70120", "pages": 20, "doctype": null, "year": 1990}], "latitude": -5.84161, "extinct": false, "macroareas": ["Pacific"], "id": "iyoo1238", "longitude": 146.092}, "mids1243": {"med": {"id": "115168", "pages": 32, "doctype": "grammarsketch", "year": 1965}, "name": "Mid-Southern Banda", "sources": [{"id": "115168", "pages": 32, "doctype": "grammarsketch", "year": 1965}], "latitude": 5.87893, "extinct": false, "macroareas": ["Africa"], "id": "mids1243", "longitude": 22.4666}, "buru1309": {"med": {"id": "38295", "pages": 1, "doctype": "wordlist", "year": 1975}, "name": "Burui", "sources": [{"id": "38295", "pages": 1, "doctype": "wordlist", "year": 1975}], "latitude": -4.03527, "extinct": false, "macroareas": ["Pacific"], "id": "buru1309", "longitude": 143.015}, "anim1239": {"med": {"id": "129126", "pages": 7, "doctype": "grammarsketch", "year": 1933}, "name": "Animere", "sources": [{"id": "129126", "pages": 7, "doctype": "grammarsketch", "year": 1933}], "latitude": 7.60385, "extinct": false, "macroareas": ["Africa"], "id": "anim1239", "longitude": 0.41962}, "nsen1242": {"med": {"id": "22162", "pages": 346, "doctype": "grammar", "year": 1928}, "name": "Nsenga", "sources": [{"id": "22162", "pages": 346, "doctype": "grammar", "year": 1928}, {"id": "9440", "pages": 0, "doctype": "grammar", "year": 1905}, {"id": "50191", "pages": 0, "doctype": "wordlist", "year": 1897}, {"id": "141866", "pages": 0, "doctype": "ethnographic", "year": 1846}], "latitude": -15.3946, "extinct": false, "macroareas": ["Africa"], "id": "nsen1242", "longitude": 31.3544}, "valp1237": {"med": {"id": "52375", "pages": 2, "doctype": "wordlist", "year": 1976}, "name": "Valpei", "sources": [{"id": "52375", "pages": 2, "doctype": "wordlist", "year": 1976}], "latitude": -14.712, "extinct": false, "macroareas": ["Pacific"], "id": "valp1237", "longitude": 166.606}, "jala1237": {"med": {"id": "14852", "pages": 11, "doctype": "grammarsketch", "year": 1979}, "name": "Jalapa De Diaz Mazatec", "sources": [{"id": "14852", "pages": 11, "doctype": "grammarsketch", "year": 1979}, {"id": "158804", "pages": 16, "doctype": "phonology", "year": 1966}, {"id": "151440", "pages": 0, "doctype": null, "year": 1959}], "latitude": 18.0803, "extinct": false, "macroareas": ["North America"], "id": "jala1237", "longitude": -96.4977}, "khao1244": {"med": {"id": "119420", "pages": 4, "doctype": "comparative", "year": 1970}, "name": "Khao", "sources": [{"id": "119420", "pages": 4, "doctype": "comparative", "year": 1970}], "latitude": 21.4543, "extinct": false, "macroareas": ["Eurasia"], "id": "khao1244", "longitude": 103.467}, "sosk1235": {"med": {"id": "38295", "pages": 1, "doctype": "wordlist", "year": 1975}, "name": "Sos Kundi", "sources": [{"id": "38295", "pages": 1, "doctype": "wordlist", "year": 1975}], "latitude": -3.99024, "extinct": false, "macroareas": ["Pacific"], "id": "sosk1235", "longitude": 143.396}, "buru1307": {"med": {"id": "310961", "pages": 6, "doctype": "wordlist", "year": 2004}, "name": "Burumakok", "sources": [{"id": "310961", "pages": 6, "doctype": "wordlist", "year": 2004}], "latitude": -5.12217, "extinct": false, "macroareas": ["Pacific"], "id": "buru1307", "longitude": 140.03}, "cent2150": {"med": {"id": "93435", "pages": 41, "doctype": "grammar", "year": 1973}, "name": "Central Tunebo", "sources": [{"id": "93435", "pages": 41, "doctype": "grammar", "year": 1973}, {"id": "12914", "pages": 59, "doctype": "grammarsketch", "year": 1926}, {"id": "28401", "pages": 12, "doctype": "ethnographic", "year": 1919}, {"id": "110199", "pages": 0, "doctype": "ethnographic", "year": 1914}], "latitude": 6.8867, "extinct": false, "macroareas": ["South America"], "id": "cent2150", "longitude": -72.097}, "coas1301": {"med": {"id": "308667", "pages": 16, "doctype": "grammarsketch", "year": 1947}, "name": "Coast Miwok", "sources": [{"id": "308667", "pages": 16, "doctype": "grammarsketch", "year": 1947}, {"id": "44155", "pages": 20, "doctype": "wordlist", "year": 1839}], "latitude": 38.3285, "extinct": true, "macroareas": ["North America"], "id": "coas1301", "longitude": -122.994}, "vinc1243": {"med": {"id": "309114", "pages": 0, "doctype": "grammar", "year": 2010}, "name": "Vincentian Creole English", "sources": [{"id": "309114", "pages": 0, "doctype": "grammar", "year": 2010}, {"id": "41996", "pages": 168, "doctype": "grammarsketch", "year": 2004}, {"id": "175832", "pages": 2, "doctype": "wordlist", "year": 1987}], "latitude": 13.2436, "extinct": false, "macroareas": ["North America"], "id": "vinc1243", "longitude": -61.1963}, "orow1242": {"med": {"id": "303461", "pages": 0, "doctype": "specificfeature", "year": 1946}, "name": "Orowe", "sources": [{"id": "303461", "pages": 0, "doctype": "specificfeature", "year": 1946}], "latitude": -21.6269, "extinct": false, "macroareas": ["Pacific"], "id": "orow1242", "longitude": 165.473}, "kant1249": {"med": {"id": "305475", "pages": 10, "doctype": "overview", "year": 1988}, "name": "Kantosi", "sources": [{"id": "305475", "pages": 10, "doctype": "overview", "year": 1988}, {"id": "91241", "pages": 8, "doctype": "ethnographic", "year": 1978}], "latitude": 10.9703, "extinct": false, "macroareas": ["Africa"], "id": "kant1249", "longitude": -1.92807}, "saaf1238": {"med": {"id": "129925", "pages": 0, "doctype": "grammar", "year": 1983}, "name": "Saafi-Saafi", "sources": [{"id": "129925", "pages": 0, "doctype": "grammar", "year": 1983}, {"id": "67019", "pages": 0, "doctype": "wordlist", "year": 1980}, {"id": "162617", "pages": 4, "doctype": null, "year": 1976}], "latitude": 14.625, "extinct": false, "macroareas": ["Africa"], "id": "saaf1238", "longitude": -17.0568}, "khva1239": {"med": {"id": "139392", "pages": 378, "doctype": "grammar", "year": 1998}, "name": "Khvarshi", "sources": [{"id": "139392", "pages": 378, "doctype": "grammar", "year": 1998}, {"id": "46860", "pages": 110, "doctype": "grammar", "year": 1963}], "latitude": 42.2743, "extinct": false, "macroareas": ["Eurasia"], "id": "khva1239", "longitude": 45.9977}, "nort2877": {"med": {"id": "109194", "pages": 34, "doctype": "grammar", "year": 1989}, "name": "Northern Kankanay", "sources": [{"id": "109194", "pages": 34, "doctype": "grammar", "year": 1989}, {"id": "148722", "pages": 96, "doctype": "grammarsketch", "year": 1917}], "latitude": 17.1057, "extinct": false, "macroareas": ["Pacific"], "id": "nort2877", "longitude": 120.786}, "ngar1284": {"med": {"id": "121105", "pages": 282, "doctype": "grammar", "year": 1978}, "name": "Ngarinyin", "sources": [{"id": "121105", "pages": 282, "doctype": "grammar", "year": 1978}, {"id": "117791", "pages": 122, "doctype": "grammar", "year": 1970}, {"id": "4167", "pages": 1, "doctype": "wordlist", "year": 1940}, {"id": "306013", "pages": 3, "doctype": "comparative", "year": 1937}, {"id": "3026", "pages": 2, "doctype": "comparative", "year": 1897}], "latitude": -16.4006, "extinct": false, "macroareas": ["Australia"], "id": "ngar1284", "longitude": 126.433}, "ngar1287": {"med": {"id": "65208", "pages": 38, "doctype": "grammar", "year": 1994}, "name": "Ngarluma", "sources": [{"id": "65208", "pages": 38, "doctype": "grammar", "year": 1994}, {"id": "310962", "pages": 12, "doctype": "grammarsketch", "year": 1982}, {"id": "1442", "pages": 5, "doctype": "grammarsketch", "year": 1903}, {"id": "26734", "pages": 6, "doctype": "wordlist", "year": 1886}, {"id": "2428", "pages": 3, "doctype": "wordlist", "year": 1863}, {"id": "310828", "pages": 2, "doctype": "wordlist", "year": 1861}], "latitude": -20.9235, "extinct": false, "macroareas": ["Australia"], "id": "ngar1287", "longitude": 117.203}, "ngar1286": {"med": {"id": "312525", "pages": 0, "doctype": "grammar", "year": 2013}, "name": "Ngarla", "sources": [{"id": "312525", "pages": 0, "doctype": "grammar", "year": 2013}, {"id": "120884", "pages": 72, "doctype": "grammarsketch", "year": 2007}, {"id": "1442", "pages": 5, "doctype": "grammarsketch", "year": 1903}, {"id": "78656", "pages": 7, "doctype": "wordlist", "year": 1886}], "latitude": -20.2075, "extinct": false, "macroareas": ["Australia"], "id": "ngar1286", "longitude": 119.306}, "wood1236": {"med": {"id": "84898", "pages": 446, "doctype": "grammar", "year": 1992}, "name": "Woods Cree", "sources": [{"id": "84898", "pages": 446, "doctype": "grammar", "year": 1992}, {"id": "81170", "pages": 343, "doctype": "grammar", "year": 1844}], "latitude": 57.0, "extinct": false, "macroareas": ["North America"], "id": "wood1236", "longitude": -99.0}, "dout1240": {"med": {"id": "76772", "pages": 22, "doctype": "phonology", "year": 1991}, "name": "Doutai", "sources": [{"id": "76772", "pages": 22, "doctype": "phonology", "year": 1991}, {"id": "126692", "pages": 1, "doctype": "wordlist", "year": 1975}], "latitude": -3.24832, "extinct": false, "macroareas": ["Pacific"], "id": "dout1240", "longitude": 138.22}, "yaku1245": {"med": {"id": "13984", "pages": 403, "doctype": "grammar", "year": 1962}, "name": "Yakut", "sources": [{"id": "13984", "pages": 403, "doctype": "grammar", "year": 1962}, {"id": "14550", "pages": 227, "doctype": "grammar", "year": 1851}, {"id": "13948", "pages": 4, "doctype": "text", "year": 1787}], "latitude": 61.6974, "extinct": false, "macroareas": ["Eurasia"], "id": "yaku1245", "longitude": 133.98}, "dyan1251": {"med": {"id": "67147", "pages": 0, "doctype": "grammar", "year": 1994}, "name": "Dyan", "sources": [{"id": "67147", "pages": 0, "doctype": "grammar", "year": 1994}, {"id": "314471", "pages": 73, "doctype": "grammarsketch", "year": 1958}, {"id": "93210", "pages": 33, "doctype": "grammarsketch", "year": 1920}, {"id": "98023", "pages": 7, "doctype": "grammarsketch", "year": 1905}, {"id": "8689", "pages": 6, "doctype": "wordlist", "year": 1904}, {"id": "105902", "pages": 4, "doctype": null, "year": 1902}, {"id": "69892", "pages": 0, "doctype": null, "year": 1787}], "latitude": 10.8342, "extinct": false, "macroareas": ["Africa"], "id": "dyan1251", "longitude": -3.59179}, "kapt1235": {"med": {"id": "60643", "pages": 0, "doctype": "wordlist", "year": 2006}, "name": "Kaptiau", "sources": [{"id": "60643", "pages": 0, "doctype": "wordlist", "year": 2006}, {"id": "94509", "pages": 0, "doctype": "wordlist", "year": 1992}, {"id": "29762", "pages": 1, "doctype": "overview", "year": 1954}], "latitude": -2.38121, "extinct": false, "macroareas": ["Pacific"], "id": "kapt1235", "longitude": 139.975}, "shek1243": {"med": {"id": "74591", "pages": 79, "doctype": "grammarsketch", "year": 2001}, "name": "Shekhawati", "sources": [{"id": "74591", "pages": 79, "doctype": "grammarsketch", "year": 2001}, {"id": "50330", "pages": 0, "doctype": "text", "year": 1908}], "latitude": 27.34, "extinct": false, "macroareas": ["Eurasia"], "id": "shek1243", "longitude": 75.407}, "shek1244": {"med": {"id": "87359", "pages": 0, "doctype": "grammar", "year": 1696}, "name": "Shekkacho", "sources": [{"id": "87359", "pages": 0, "doctype": "grammar", "year": 1696}], "latitude": 7.27424, "extinct": false, "macroareas": ["Africa"], "id": "shek1244", "longitude": 35.3922}, "shek1245": {"med": {"id": "30170", "pages": 517, "doctype": "grammar", "year": 2010}, "name": "Sheko", "sources": [{"id": "30170", "pages": 517, "doctype": "grammar", "year": 2010}, {"id": "7584", "pages": 121, "doctype": "grammarsketch", "year": 1988}, {"id": "303917", "pages": 61, "doctype": "ethnographic", "year": 1963}], "latitude": 7.05022, "extinct": false, "macroareas": ["Africa"], "id": "shek1245", "longitude": 35.2826}, "bung1270": {"med": {"id": "91400", "pages": 2, "doctype": "comparative", "year": 1980}, "name": "Bungain", "sources": [{"id": "91400", "pages": 2, "doctype": "comparative", "year": 1980}, {"id": "108516", "pages": 1, "doctype": "comparative", "year": 1973}], "latitude": -3.69674, "extinct": false, "macroareas": ["Pacific"], "id": "bung1270", "longitude": 143.796}, "aben1249": {"med": {"id": "14827", "pages": 0, "doctype": "grammar", "year": 2009}, "name": "Abenlen Ayta", "sources": [{"id": "14827", "pages": 0, "doctype": "grammar", "year": 2009}, {"id": "150458", "pages": 1, "doctype": "wordlist", "year": 2008}, {"id": "143353", "pages": 1, "doctype": "wordlist", "year": 1994}, {"id": "80319", "pages": 0, "doctype": "wordlist", "year": 1904}], "latitude": 15.4131, "extinct": false, "macroareas": ["Pacific"], "id": "aben1249", "longitude": 120.2}, "wara1303": {"med": {"id": "157325", "pages": 171, "doctype": "grammar", "year": 1965}, "name": "Warao", "sources": [{"id": "157325", "pages": 171, "doctype": "grammar", "year": 1965}, {"id": "92246", "pages": 20, "doctype": "grammar", "year": 1930}, {"id": "58519", "pages": 0, "doctype": "grammar", "year": 1928}, {"id": "55891", "pages": 11, "doctype": "grammarsketch", "year": 1897}, {"id": "29572", "pages": 13, "doctype": "wordlist", "year": 1868}, {"id": "71077", "pages": 8, "doctype": "wordlist", "year": 1832}], "latitude": 7.50851, "extinct": false, "macroareas": ["South America"], "id": "wara1303", "longitude": -59.3528}, "wara1302": {"med": {"id": "140396", "pages": 433, "doctype": "grammar", "year": 2006}, "name": "Warapu", "sources": [{"id": "140396", "pages": 433, "doctype": "grammar", "year": 2006}, {"id": "140397", "pages": 433, "doctype": "grammar", "year": 2005}, {"id": "181853", "pages": 33, "doctype": "specificfeature", "year": 2003}, {"id": "91072", "pages": 1, "doctype": "wordlist", "year": 1919}, {"id": "124132", "pages": 1, "doctype": "wordlist", "year": 1900}], "latitude": -3.07263, "extinct": false, "macroareas": ["Pacific"], "id": "wara1302", "longitude": 142.012}, "gadd1242": {"med": {"id": "127531", "pages": 14, "doctype": "grammarsketch", "year": 1908}, "name": "Gaddi", "sources": [{"id": "127531", "pages": 14, "doctype": "grammarsketch", "year": 1908}], "latitude": 32.36, "extinct": false, "macroareas": ["Eurasia"], "id": "gadd1242", "longitude": 76.5713}, "gadd1244": {"med": {"id": "12140", "pages": 286, "doctype": "dictionary", "year": 1965}, "name": "Gaddang", "sources": [{"id": "12140", "pages": 286, "doctype": "dictionary", "year": 1965}], "latitude": 16.5468, "extinct": false, "macroareas": ["Pacific"], "id": "gadd1244", "longitude": 121.177}, "tong1308": {"med": {"id": "80266", "pages": 476, "doctype": "wordlist", "year": 1971}, "name": "Tonga (Thailand)", "sources": [{"id": "80266", "pages": 476, "doctype": "wordlist", "year": 1971}, {"id": "52671", "pages": 37, "doctype": "ethnographic", "year": 1961}], "latitude": 6.88137, "extinct": false, "macroareas": ["Eurasia"], "id": "tong1308", "longitude": 100.102}, "nimo1247": {"med": {"id": "109325", "pages": 1, "doctype": "wordlist", "year": 1975}, "name": "Nimo", "sources": [{"id": "109325", "pages": 1, "doctype": "wordlist", "year": 1975}, {"id": "108516", "pages": 1, "doctype": "comparative", "year": 1973}], "latitude": -4.3582, "extinct": false, "macroareas": ["Pacific"], "id": "nimo1247", "longitude": 141.578}, "obis1242": {"med": {"id": "55849", "pages": 118, "doctype": "wordlist", "year": 1952}, "name": "Obispeno", "sources": [{"id": "55849", "pages": 118, "doctype": "wordlist", "year": 1952}, {"id": "54846", "pages": 2, "doctype": "wordlist", "year": 1862}, {"id": "162143", "pages": 2, "doctype": "wordlist", "year": 1841}], "latitude": 35.2873, "extinct": true, "macroareas": ["North America"], "id": "obis1242", "longitude": -120.669}, "mini1256": {"med": {"id": "12550", "pages": 134, "doctype": "grammar", "year": 1982}, "name": "Minica Huitoto", "sources": [{"id": "12550", "pages": 134, "doctype": "grammar", "year": 1982}, {"id": "12786", "pages": 0, "doctype": "grammar", "year": 1971}, {"id": "119143", "pages": 33, "doctype": "grammarsketch", "year": 1906}], "latitude": -1.54535, "extinct": false, "macroareas": ["South America"], "id": "mini1256", "longitude": -73.1107}, "mini1253": {"med": {"id": "138610", "pages": 1, "doctype": "wordlist", "year": 1968}, "name": "Minidien", "sources": [{"id": "138610", "pages": 1, "doctype": "wordlist", "year": 1968}], "latitude": -3.59408, "extinct": false, "macroareas": ["Pacific"], "id": "mini1253", "longitude": 142.33}, "asas1240": {"med": {"id": "156733", "pages": 4, "doctype": "wordlist", "year": 1980}, "name": "Asas", "sources": [{"id": "156733", "pages": 4, "doctype": "wordlist", "year": 1980}, {"id": "16299", "pages": 1, "doctype": "comparative", "year": 1975}], "latitude": -5.69345, "extinct": false, "macroareas": ["Pacific"], "id": "asas1240", "longitude": 145.549}, "leni1238": {"med": {"id": "77970", "pages": 22, "doctype": "grammarsketch", "year": 1966}, "name": "Leningitij", "sources": [{"id": "77970", "pages": 22, "doctype": "grammarsketch", "year": 1966}, {"id": "6763", "pages": 5, "doctype": "comparative", "year": 1935}], "latitude": -20.0, "extinct": true, "macroareas": ["Australia"], "id": "leni1238", "longitude": 145.0}, "ayut1236": {"med": {"id": "34958", "pages": 260, "doctype": "grammar", "year": 1990}, "name": "Ayutla Mixtec", "sources": [{"id": "34958", "pages": 260, "doctype": "grammar", "year": 1990}, {"id": "76972", "pages": 5, "doctype": "wordlist", "year": 1983}, {"id": "64541", "pages": 13, "doctype": null, "year": 1967}], "latitude": 16.8833, "extinct": false, "macroareas": ["North America"], "id": "ayut1236", "longitude": -98.9916}, "uspa1245": {"med": {"id": "40757", "pages": 0, "doctype": "grammarsketch", "year": 2003}, "name": "Uspanteco", "sources": [{"id": "40757", "pages": 0, "doctype": "grammarsketch", "year": 2003}, {"id": "150493", "pages": 0, "doctype": "comparative", "year": 1970}], "latitude": 15.3648, "extinct": false, "macroareas": ["North America"], "id": "uspa1245", "longitude": -90.8893}, "teri1250": {"med": {"id": "88365", "pages": 204, "doctype": "grammar", "year": 2000}, "name": "Teribe", "sources": [{"id": "88365", "pages": 204, "doctype": "grammar", "year": 2000}, {"id": "157113", "pages": 150, "doctype": "grammarsketch", "year": 1986}, {"id": "81551", "pages": 37, "doctype": "grammarsketch", "year": 1977}, {"id": "114034", "pages": 0, "doctype": "grammarsketch", "year": 1976}, {"id": "88011", "pages": 0, "doctype": "grammarsketch", "year": 1892}, {"id": "94560", "pages": 40, "doctype": "wordlist", "year": 1875}], "latitude": 9.067, "extinct": false, "macroareas": ["North America"], "id": "teri1250", "longitude": -82.9631}, "suab1238": {"med": {"id": "33749", "pages": 84, "doctype": "grammar", "year": 2004}, "name": "Suabo", "sources": [{"id": "33749", "pages": 84, "doctype": "grammar", "year": 2004}, {"id": "57028", "pages": 31, "doctype": "grammarsketch", "year": 1996}, {"id": "126692", "pages": 1, "doctype": "wordlist", "year": 1975}, {"id": "140755", "pages": 62, "doctype": "ethnographic", "year": 1951}], "latitude": -2.07971, "extinct": false, "macroareas": ["Pacific"], "id": "suab1238", "longitude": 132.157}, "hary1238": {"med": {"id": "164541", "pages": 90, "doctype": "grammar", "year": 1959}, "name": "Haryanvi", "sources": [{"id": "164541", "pages": 90, "doctype": "grammar", "year": 1959}, {"id": "309689", "pages": 0, "doctype": "grammarsketch", "year": 1910}], "latitude": 29.0166, "extinct": false, "macroareas": ["Eurasia"], "id": "hary1238", "longitude": 76.0432}, "lezg1247": {"med": {"id": "91629", "pages": 587, "doctype": "grammar", "year": 1993}, "name": "Lezgian", "sources": [{"id": "91629", "pages": 587, "doctype": "grammar", "year": 1993}, {"id": "310673", "pages": 0, "doctype": "grammar", "year": 1896}, {"id": "309459", "pages": 0, "doctype": "wordlist", "year": 1786}], "latitude": 41.5157, "extinct": false, "macroareas": ["Eurasia"], "id": "lezg1247", "longitude": 47.8951}, "bote1238": {"med": {"id": "145826", "pages": 9, "doctype": "specificfeature", "year": 2000}, "name": "Bote-Majhi", "sources": [{"id": "145826", "pages": 9, "doctype": "specificfeature", "year": 2000}, {"id": "314366", "pages": 0, "doctype": "specificfeature", "year": 1999}, {"id": "54846", "pages": 2, "doctype": "wordlist", "year": 1862}, {"id": "146631", "pages": 1, "doctype": "wordlist", "year": 1857}], "latitude": 27.7074, "extinct": false, "macroareas": ["Eurasia"], "id": "bote1238", "longitude": 84.348}, "kula1280": {"med": {"id": "124293", "pages": 18, "doctype": "specificfeature", "year": 1997}, "name": "Kula (Indonesia)", "sources": [{"id": "124293", "pages": 18, "doctype": "specificfeature", "year": 1997}, {"id": "161717", "pages": 2, "doctype": "wordlist", "year": 1975}], "latitude": -8.2384, "extinct": false, "macroareas": ["Pacific"], "id": "kula1280", "longitude": 125.004}, "shoo1247": {"med": {"id": "130394", "pages": 7, "doctype": "wordlist", "year": 1980}, "name": "Shoo-Minda-Nye", "sources": [{"id": "130394", "pages": 7, "doctype": "wordlist", "year": 1980}], "latitude": 8.92577, "extinct": false, "macroareas": ["Africa"], "id": "shoo1247", "longitude": 10.9642}, "sedo1237": {"med": {"id": "63583", "pages": 2, "doctype": "wordlist", "year": 1979}, "name": "Sedoa", "sources": [{"id": "63583", "pages": 2, "doctype": "wordlist", "year": 1979}], "latitude": -1.37295, "extinct": false, "macroareas": ["Pacific"], "id": "sedo1237", "longitude": 120.378}, "guhu1244": {"med": {"id": "308791", "pages": 0, "doctype": "grammar", "year": 2007}, "name": "Guhu-Samane", "sources": [{"id": "308791", "pages": 0, "doctype": "grammar", "year": 2007}, {"id": "114537", "pages": 45, "doctype": "grammarsketch", "year": 1975}, {"id": "91199", "pages": 7, "doctype": "phonology", "year": 1972}, {"id": "302762", "pages": 10, "doctype": "wordlist", "year": 1915}], "latitude": -7.99922, "extinct": false, "macroareas": ["Pacific"], "id": "guhu1244", "longitude": 147.228}, "yana1271": {"med": {"id": "121149", "pages": 139, "doctype": "grammarsketch", "year": 1960}, "name": "Yana", "sources": [{"id": "121149", "pages": 139, "doctype": "grammarsketch", "year": 1960}, {"id": "135285", "pages": 20, "doctype": "grammarsketch", "year": 1922}, {"id": "7675", "pages": 235, "doctype": "text", "year": 1910}], "latitude": 39.2769, "extinct": true, "macroareas": ["North America"], "id": "yana1271", "longitude": -121.608}, "kode1237": {"med": {"id": "161612", "pages": 7, "doctype": "wordlist", "year": 1999}, "name": "Kodeoha", "sources": [{"id": "161612", "pages": 7, "doctype": "wordlist", "year": 1999}], "latitude": -3.39566, "extinct": false, "macroareas": ["Pacific"], "id": "kode1237", "longitude": 120.937}, "ngos1238": {"med": {"id": "96625", "pages": 46, "doctype": "grammarsketch", "year": 1998}, "name": "Ngoshie", "sources": [{"id": "96625", "pages": 46, "doctype": "grammarsketch", "year": 1998}, {"id": "47083", "pages": 28, "doctype": "specificfeature", "year": 1978}], "latitude": 6.04616, "extinct": false, "macroareas": ["Africa"], "id": "ngos1238", "longitude": 9.83193}, "lyel1241": {"med": {"id": "24753", "pages": 452, "doctype": "grammar", "year": 1953}, "name": "Lyele", "sources": [{"id": "24753", "pages": 452, "doctype": "grammar", "year": 1953}, {"id": "132905", "pages": 15, "doctype": "grammarsketch", "year": 1924}, {"id": "66963", "pages": 5, "doctype": "wordlist", "year": 1889}], "latitude": 12.4305, "extinct": false, "macroareas": ["Africa"], "id": "lyel1241", "longitude": -2.59229}, "tido1248": {"med": {"id": "54761", "pages": 584, "doctype": "grammar", "year": 2000}, "name": "Tidore", "sources": [{"id": "54761", "pages": 584, "doctype": "grammar", "year": 2000}, {"id": "46186", "pages": 106, "doctype": "grammarsketch", "year": 1990}, {"id": "128886", "pages": 0, "doctype": "grammarsketch", "year": 1982}, {"id": "9975", "pages": 2, "doctype": "wordlist", "year": 1908}], "latitude": 0.02461, "extinct": false, "macroareas": ["Pacific"], "id": "tido1248", "longitude": 127.746}, "tido1247": {"med": {"id": "8897", "pages": 73, "doctype": "grammarsketch", "year": 1908}, "name": "Tidong", "sources": [{"id": "8897", "pages": 73, "doctype": "grammarsketch", "year": 1908}, {"id": "94374", "pages": 15, "doctype": "wordlist", "year": 1885}], "latitude": 3.93795, "extinct": false, "macroareas": ["Pacific"], "id": "tido1247", "longitude": 117.551}, "blaf1238": {"med": {"id": "72902", "pages": 9, "doctype": "wordlist", "year": 1939}, "name": "Blafe", "sources": [{"id": "72902", "pages": 9, "doctype": "wordlist", "year": 1939}, {"id": "161128", "pages": 18, "doctype": "overview", "year": 1936}], "latitude": -8.56161, "extinct": false, "macroareas": ["Pacific"], "id": "blaf1238", "longitude": 141.226}, "kulf1238": {"med": {"id": "135789", "pages": 27, "doctype": "wordlist", "year": 2000}, "name": "Kulfa", "sources": [{"id": "135789", "pages": 27, "doctype": "wordlist", "year": 2000}], "latitude": 9.96327, "extinct": false, "macroareas": ["Africa"], "id": "kulf1238", "longitude": 18.9055}, "mpad1242": {"med": {"id": "312127", "pages": 0, "doctype": "grammar", "year": 2012}, "name": "Mpade", "sources": [{"id": "312127", "pages": 0, "doctype": "grammar", "year": 2012}, {"id": "307403", "pages": 286, "doctype": "grammarsketch", "year": 2005}, {"id": "29774", "pages": 0, "doctype": "grammarsketch", "year": 1912}], "latitude": 12.4609, "extinct": false, "macroareas": ["Africa"], "id": "mpad1242", "longitude": 14.5833}, "olek1239": {"med": {"id": "78206", "pages": 11, "doctype": "comparative", "year": 1995}, "name": "Olekha", "sources": [{"id": "78206", "pages": 11, "doctype": "comparative", "year": 1995}, {"id": "163454", "pages": 14, "doctype": null, "year": 1988}], "latitude": 27.2079, "extinct": false, "macroareas": ["Eurasia"], "id": "olek1239", "longitude": 90.5546}, "kurt1250": {"med": {"id": "67207", "pages": 32, "doctype": "grammarsketch", "year": 2002}, "name": "Kurti", "sources": [{"id": "67207", "pages": 32, "doctype": "grammarsketch", "year": 2002}, {"id": "98107", "pages": 2, "doctype": "comparative", "year": 1988}], "latitude": -2.01187, "extinct": false, "macroareas": ["Pacific"], "id": "kurt1250", "longitude": 147.036}, "nort2941": {"med": {"id": "167430", "pages": 0, "doctype": "grammarsketch", "year": 2001}, "name": "Northern Tutchone", "sources": [{"id": "167430", "pages": 0, "doctype": "grammarsketch", "year": 2001}, {"id": "167882", "pages": 0, "doctype": "grammarsketch", "year": 1994}, {"id": "167707", "pages": 0, "doctype": "grammarsketch", "year": 1976}, {"id": "168841", "pages": 0, "doctype": "text", "year": 1882}], "latitude": 62.8235, "extinct": false, "macroareas": ["North America"], "id": "nort2941", "longitude": -136.644}, "malt1238": {"med": null, "name": "Maltese Sign Language", "sources": [], "latitude": 35.907, "extinct": false, "macroareas": ["Eurasia"], "id": "malt1238", "longitude": 14.4824}, "nort2943": {"med": {"id": "133069", "pages": 291, "doctype": "grammar", "year": 1997}, "name": "North Alaskan Inupiatun", "sources": [{"id": "133069", "pages": 291, "doctype": "grammar", "year": 1997}, {"id": "57422", "pages": 0, "doctype": "grammar", "year": 1986}, {"id": "311678", "pages": 0, "doctype": "grammar", "year": 1985}, {"id": "314312", "pages": 92, "doctype": "grammarsketch", "year": 1979}, {"id": "43121", "pages": 28, "doctype": "grammarsketch", "year": 1887}, {"id": "176167", "pages": 0, "doctype": "grammarsketch", "year": 1885}, {"id": "165000", "pages": 0, "doctype": "grammarsketch", "year": 1850}, {"id": "108740", "pages": 0, "doctype": null, "year": 1817}], "latitude": 69.582, "extinct": false, "macroareas": ["North America"], "id": "nort2943", "longitude": -143.77}, "kudi1237": {"med": {"id": "96033", "pages": 18, "doctype": "overview", "year": 1973}, "name": "Kudiya", "sources": [{"id": "96033", "pages": 18, "doctype": "overview", "year": 1973}, {"id": "118348", "pages": 0, "doctype": "overview", "year": 1909}], "latitude": 12.3301, "extinct": false, "macroareas": ["Eurasia"], "id": "kudi1237", "longitude": 75.4896}, "chuv1255": {"med": {"id": "137242", "pages": 459, "doctype": "grammar", "year": 1996}, "name": "Chuvash", "sources": [{"id": "137242", "pages": 459, "doctype": "grammar", "year": 1996}, {"id": "52886", "pages": 274, "doctype": "grammar", "year": 1961}, {"id": "311732", "pages": 57, "doctype": "grammarsketch", "year": 1959}, {"id": "16403", "pages": 0, "doctype": "grammarsketch", "year": 1943}, {"id": "307977", "pages": 23, "doctype": "wordlist", "year": 1843}], "latitude": 55.487, "extinct": false, "macroareas": ["Eurasia"], "id": "chuv1255", "longitude": 47.163}, "west1510": {"med": {"id": "20928", "pages": 0, "doctype": "grammar", "year": 1994}, "name": "Western Ojibwa", "sources": [{"id": "20928", "pages": 0, "doctype": "grammar", "year": 1994}, {"id": "107521", "pages": 146, "doctype": "grammarsketch", "year": 1839}], "latitude": 50.5664, "extinct": false, "macroareas": ["North America"], "id": "west1510", "longitude": -102.525}, "west1511": {"med": {"id": "307286", "pages": 0, "doctype": "grammar", "year": 1978}, "name": "Western Totonac", "sources": [{"id": "307286", "pages": 0, "doctype": "grammar", "year": 1978}], "latitude": 20.4574, "extinct": false, "macroareas": ["North America"], "id": "west1511", "longitude": -97.9486}, "rara1235": {"med": {"id": "144613", "pages": 6, "doctype": "wordlist", "year": 1935}, "name": "Rara Bakati'", "sources": [{"id": "144613", "pages": 6, "doctype": "wordlist", "year": 1935}, {"id": "23345", "pages": 3, "doctype": "wordlist", "year": 1913}], "latitude": 1.27026, "extinct": false, "macroareas": ["Pacific"], "id": "rara1235", "longitude": 109.539}, "uduk1239": {"med": {"id": "314872", "pages": 0, "doctype": "grammarsketch", "year": null}, "name": "Uduk", "sources": [{"id": "29626", "pages": 370, "doctype": "dictionary", "year": 1979}, {"id": "29623", "pages": 183, "doctype": "dictionary", "year": 1970}, {"id": "88123", "pages": 0, "doctype": "dictionary", "year": 1956}, {"id": "159016", "pages": 4, "doctype": "wordlist", "year": 1932}, {"id": "42565", "pages": 13, "doctype": null, "year": 1865}], "latitude": 9.16012, "extinct": false, "macroareas": ["Africa"], "id": "uduk1239", "longitude": 34.2293}, "lore1243": {"med": {"id": "304823", "pages": 0, "doctype": "grammarsketch", "year": 1998}, "name": "Loreto-Ucayali Spanish", "sources": [{"id": "304823", "pages": 0, "doctype": "grammarsketch", "year": 1998}], "latitude": -4.74563, "extinct": false, "macroareas": ["South America"], "id": "lore1243", "longitude": -73.6507}, "thai1261": {"med": {"id": "18505", "pages": 563, "doctype": "grammar", "year": 1970}, "name": "Thai", "sources": [{"id": "18505", "pages": 563, "doctype": "grammar", "year": 1970}, {"id": "149868", "pages": 288, "doctype": "grammar", "year": 1961}, {"id": "76386", "pages": 135, "doctype": "grammar", "year": 1957}, {"id": "137534", "pages": 91, "doctype": "grammar", "year": 1955}, {"id": "159979", "pages": 78, "doctype": "grammar", "year": 1942}, {"id": "30523", "pages": -593, "doctype": "grammar", "year": 1851}], "latitude": 14.192, "extinct": false, "macroareas": ["Eurasia"], "id": "thai1261", "longitude": 100.671}, "lore1244": {"med": {"id": "52375", "pages": 2, "doctype": "wordlist", "year": 1976}, "name": "Lorediakarkar", "sources": [{"id": "52375", "pages": 2, "doctype": "wordlist", "year": 1976}], "latitude": -15.1985, "extinct": false, "macroareas": ["Pacific"], "id": "lore1244", "longitude": 167.036}, "oyda1235": {"med": {"id": "153570", "pages": 0, "doctype": "grammarsketch", "year": 2003}, "name": "Oyda", "sources": [{"id": "153570", "pages": 0, "doctype": "grammarsketch", "year": 2003}, {"id": "84737", "pages": 0, "doctype": "comparative", "year": 2002}], "latitude": 6.13322, "extinct": false, "macroareas": ["Africa"], "id": "oyda1235", "longitude": 36.8541}, "garr1259": {"med": {"id": "12464", "pages": 162, "doctype": "grammar", "year": 1989}, "name": "Garre", "sources": [{"id": "12464", "pages": 162, "doctype": "grammar", "year": 1989}], "latitude": 2.29633, "extinct": false, "macroareas": ["Africa"], "id": "garr1259", "longitude": 44.6862}, "wall1238": {"med": {"id": "85136", "pages": 104, "doctype": "grammar", "year": 1931}, "name": "Walla Walla", "sources": [{"id": "85136", "pages": 104, "doctype": "grammar", "year": 1931}, {"id": "12186", "pages": 0, "doctype": null, "year": 1929}], "latitude": 45.7206, "extinct": false, "macroareas": ["North America"], "id": "wall1238", "longitude": -118.424}, "mamv1243": {"med": {"id": "66974", "pages": 178, "doctype": "grammar", "year": 1971}, "name": "Mamvu", "sources": [{"id": "66974", "pages": 178, "doctype": "grammar", "year": 1971}, {"id": "119191", "pages": 6, "doctype": "grammar", "year": 1889}, {"id": "102870", "pages": 0, "doctype": "dictionary", "year": 1877}, {"id": "56173", "pages": 37, "doctype": null, "year": 1876}, {"id": "10869", "pages": 0, "doctype": null, "year": 1875}], "latitude": 2.68167, "extinct": false, "macroareas": ["Africa"], "id": "mamv1243", "longitude": 28.9862},